City_ID,City,Lat,Lng,Max Temp,Humidity,Cloudiness,Wind Speed,Country,Date
0,rikitea,-23.1203,-134.9692,24.97,71,75,6.07,PF,1970-01-01 00:00:01.680909791
1,tuktoyaktuk,69.4541,-133.0374,-14.0,78,100,13.38,CA,1970-01-01 00:00:01.680909909
2,bilma,18.6853,12.9164,30.34,12,27,3.38,NE,1970-01-01 00:00:01.680909909
3,jamestown,42.097,-79.2353,4.77,54,0,4.63,US,1970-01-01 00:00:01.680909704
4,nehe,48.4833,124.8333,-0.65,47,13,1.4,CN,1970-01-01 00:00:01.680909911
5,bonthe,7.5264,-12.505,26.45,85,63,1.67,SL,1970-01-01 00:00:01.680909911
6,severo-kurilsk,50.6789,156.125,0.41,97,100,10.47,RU,1970-01-01 00:00:01.680909912
7,bethel,41.3712,-73.414,9.45,34,0,3.09,US,1970-01-01 00:00:01.680909912
8,punta arenas,-53.15,-70.9167,5.06,81,40,12.35,CL,1970-01-01 00:00:01.680909729
9,mlonggo,-6.5333,110.7,25.05,86,97,2.1,ID,1970-01-01 00:00:01.680909914
10,acapulco,16.8634,-99.8901,29.9,66,0,4.12,MX,1970-01-01 00:00:01.680909914
11,vardo,70.3705,31.1107,3.99,75,75,5.14,NO,1970-01-01 00:00:01.680909915
12,husavik,66.0449,-17.3389,5.27,79,100,11.65,IS,1970-01-01 00:00:01.680909915
13,tiksi,71.6872,128.8694,-21.83,97,83,4.6,RU,1970-01-01 00:00:01.680909916
14,port alfred,-33.5906,26.891,16.21,85,64,5.15,ZA,1970-01-01 00:00:01.680909916
15,ancud,-41.8697,-73.8203,11.29,82,100,1.79,CL,1970-01-01 00:00:01.680909916
16,victoria,22.2855,114.1577,21.29,76,100,1.34,HK,1970-01-01 00:00:01.680909667
17,batticaloa,7.7102,81.6924,25.89,72,29,0.36,LK,1970-01-01 00:00:01.680909917
18,hit,33.6416,42.8251,21.31,28,17,5.96,IQ,1970-01-01 00:00:01.680909917
19,tazovskiy,67.4667,78.7,-15.61,93,100,7.06,RU,1970-01-01 00:00:01.680909918
20,susanino,58.1461,41.5872,-0.35,80,0,2.19,RU,1970-01-01 00:00:01.680909919
21,bluff,-46.6,168.3333,12.11,66,12,2.45,NZ,1970-01-01 00:00:01.680909919
22,ushuaia,-54.8,-68.3,4.81,75,20,5.66,AR,1970-01-01 00:00:01.680909648
23,hilo,19.7297,-155.09,27.93,78,75,4.12,US,1970-01-01 00:00:01.680909688
24,hobart,-42.8794,147.3294,15.03,69,20,4.12,AU,1970-01-01 00:00:01.680909920
25,shakawe,-18.3667,21.85,21.14,42,51,2.19,BW,1970-01-01 00:00:01.680909920
26,coquimbo,-29.9533,-71.3436,15.85,88,100,2.57,CL,1970-01-01 00:00:01.680909847
27,qaanaaq,77.484,-69.3632,-26.65,72,0,2.65,GL,1970-01-01 00:00:01.680909921
28,mataura,-46.1927,168.8643,11.93,58,9,1.63,NZ,1970-01-01 00:00:01.680909922
29,saint-jean-de-maurienne,45.1667,6.5833,-6.64,95,83,1.57,FR,1970-01-01 00:00:01.680909922
30,la joya,18.6667,-99.4667,35.22,16,1,3.13,MX,1970-01-01 00:00:01.680909923
31,vila franca do campo,37.7167,-25.4333,11.23,64,35,4.9,PT,1970-01-01 00:00:01.680909923
32,coro,11.4045,-69.6734,25.95,79,51,7.93,VE,1970-01-01 00:00:01.680909923
33,portland,45.5234,-122.6762,14.17,87,100,5.66,US,1970-01-01 00:00:01.680909793
34,pangnirtung,66.1451,-65.7125,-21.63,94,42,1.56,CA,1970-01-01 00:00:01.680909924
35,vaini,-21.2,-175.2,30.09,79,40,5.14,TO,1970-01-01 00:00:01.680909924
36,henderson,36.0397,-114.9819,25.73,12,0,5.14,US,1970-01-01 00:00:01.680909925
37,airai,-8.9266,125.4092,15.99,85,100,0.73,TL,1970-01-01 00:00:01.680909925
38,gidole,5.65,37.3667,14.33,76,62,1.44,ET,1970-01-01 00:00:01.680909925
39,khed brahma,24.0333,73.05,24.81,29,57,1.12,IN,1970-01-01 00:00:01.680909926
40,cidreira,-30.1811,-50.2056,20.7,75,100,4.34,BR,1970-01-01 00:00:01.680909926
41,dikson,73.5069,80.5464,-34.98,96,6,3.99,RU,1970-01-01 00:00:01.680909926
42,barrow,71.2906,-156.7887,-19.99,71,100,5.14,US,1970-01-01 00:00:01.680909926
43,bilibino,68.0546,166.4372,-16.06,79,57,0.7,RU,1970-01-01 00:00:01.680909927
44,cabo san lucas,22.8909,-109.9124,28.17,24,0,6.17,MX,1970-01-01 00:00:01.680909751
45,najran,17.4924,44.1277,19.36,54,62,4.94,SA,1970-01-01 00:00:01.680909928
46,busselton,-33.65,115.3333,11.57,82,0,4.62,AU,1970-01-01 00:00:01.680909928
47,faanui,-16.4833,-151.75,28.72,75,90,7.96,PF,1970-01-01 00:00:01.680909930
48,atuona,-9.8,-139.0333,27.19,73,36,8.44,PF,1970-01-01 00:00:01.680909930
49,albany,42.6001,-73.9662,5.36,47,100,0.89,US,1970-01-01 00:00:01.680909930
50,longyearbyen,78.2186,15.6401,-10.09,73,75,7.2,SJ,1970-01-01 00:00:01.680909931
51,la reforma,25.0833,-108.05,24.9,42,0,6.14,MX,1970-01-01 00:00:01.680909931
52,mityana,0.4175,32.0228,17.05,97,12,0.42,UG,1970-01-01 00:00:01.680909931
53,kutum,14.2,24.6667,22.3,12,43,2.96,SD,1970-01-01 00:00:01.680909932
54,belaya gora,68.5333,146.4167,-18.51,95,97,0.78,RU,1970-01-01 00:00:01.680909932
55,sikasso,10.9167,-7.0,29.29,52,96,1.85,ML,1970-01-01 00:00:01.680909932
56,bredasdorp,-34.5322,20.0403,14.57,76,100,2.56,ZA,1970-01-01 00:00:01.680909933
57,buala,-8.145,159.5921,29.27,68,100,2.5,SB,1970-01-01 00:00:01.680909933
58,goderich,43.7501,-81.7165,0.51,64,15,4.12,CA,1970-01-01 00:00:01.680909934
59,sao joao da barra,-21.6403,-41.0511,25.05,88,43,3.61,BR,1970-01-01 00:00:01.680909934
60,nadym,65.5333,72.5167,-3.02,91,100,11.18,RU,1970-01-01 00:00:01.680909934
61,alexandria,31.2156,29.9553,16.3,79,62,6.05,EG,1970-01-01 00:00:01.680909935
62,vao,-22.6667,167.4833,24.01,72,6,3.22,NC,1970-01-01 00:00:01.680909935
63,poum,-20.2333,164.0167,25.28,66,3,1.74,NC,1970-01-01 00:00:01.680909935
64,manta,-0.95,-80.7333,25.26,85,100,1.45,EC,1970-01-01 00:00:01.680909936
65,castro,-24.7911,-50.0119,16.11,99,100,2.62,BR,1970-01-01 00:00:01.680909936
66,lorengau,-2.0226,147.2712,26.72,83,100,4.52,PG,1970-01-01 00:00:01.680909936
67,jinchang,38.4953,102.1739,4.39,34,4,1.84,CN,1970-01-01 00:00:01.680909937
68,torbay,47.6666,-52.7314,3.1,92,100,10.29,CA,1970-01-01 00:00:01.680909937
69,napier,-39.4833,176.9167,12.93,83,100,2.24,NZ,1970-01-01 00:00:01.680909639
70,laranjeiras do sul,-25.4078,-52.4161,15.99,98,83,1.15,BR,1970-01-01 00:00:01.680909938
71,shalakusha,62.2247,40.2539,-5.7,97,16,1.09,RU,1970-01-01 00:00:01.680909938
72,alice springs,-23.7,133.8833,21.79,47,7,4.12,AU,1970-01-01 00:00:01.680909938
73,quatre cocos,-20.2078,57.7625,24.49,81,54,3.07,MU,1970-01-01 00:00:01.680909939
74,leningradskiy,69.3833,178.4167,-21.48,92,100,4.57,RU,1970-01-01 00:00:01.680909939
75,kamaishi,39.2667,141.8833,10.2,94,100,0.74,JP,1970-01-01 00:00:01.680909939
76,saldanha,-33.0117,17.9442,14.03,82,100,8.98,ZA,1970-01-01 00:00:01.680909940
77,gat,31.61,34.7642,17.67,71,2,1.6,IL,1970-01-01 00:00:01.680909940
78,ribeira grande,38.5167,-28.7,11.54,73,31,1.34,PT,1970-01-01 00:00:01.680909941
79,nikolskoye,59.7035,30.7861,-0.06,98,9,1.22,RU,1970-01-01 00:00:01.680909941
80,chuy,-33.6971,-53.4616,17.6,70,73,2.35,UY,1970-01-01 00:00:01.680909941
81,vestmannaeyjar,63.4427,-20.2734,8.23,78,100,16.1,IS,1970-01-01 00:00:01.680909942
82,mizan teferi,6.9833,35.5833,17.38,85,97,1.24,ET,1970-01-01 00:00:01.680909942
83,lasa,46.6166,10.7002,6.49,96,100,1.77,IT,1970-01-01 00:00:01.680909942
84,mahebourg,-20.4081,57.7,24.58,94,40,1.54,MU,1970-01-01 00:00:01.680909942
85,verkh-usugli,52.7,115.1667,-3.22,62,53,1.03,RU,1970-01-01 00:00:01.680909943
86,tasiilaq,65.6145,-37.6368,-0.91,90,100,20.14,GL,1970-01-01 00:00:01.680909943
87,sao felix do xingu,-6.6447,-51.995,21.33,99,100,0.31,BR,1970-01-01 00:00:01.680909943
88,kahului,20.8947,-156.47,28.01,69,40,9.77,US,1970-01-01 00:00:01.680909943
89,upernavik,72.7868,-56.1549,-27.79,98,48,5.46,GL,1970-01-01 00:00:01.680909944
90,burriana,39.889,-0.085,14.26,57,18,1.98,ES,1970-01-01 00:00:01.680909944
91,mount gambier,-37.8333,140.7667,13.02,76,89,4.51,AU,1970-01-01 00:00:01.680909945
92,norman wells,65.282,-126.8329,-5.98,53,40,6.69,CA,1970-01-01 00:00:01.680909945
93,hindoria,23.9,79.5667,25.43,21,75,0.67,IN,1970-01-01 00:00:01.680909946
94,novozybkov,52.5396,31.9275,9.16,92,100,3.13,RU,1970-01-01 00:00:01.680909946
95,yellowknife,62.456,-114.3525,6.29,52,75,7.72,CA,1970-01-01 00:00:01.680909660
96,bukama,-9.2,25.85,20.25,97,95,0.45,CD,1970-01-01 00:00:01.680909947
97,mar del plata,-38.0023,-57.5575,20.05,90,20,6.71,AR,1970-01-01 00:00:01.680909710
98,cape town,-33.9258,18.4232,15.51,79,40,3.58,ZA,1970-01-01 00:00:01.680909758
99,tarata,-17.6167,-66.0167,15.68,62,95,3.1,BO,1970-01-01 00:00:01.680909948
100,roald,62.5833,6.1333,4.44,74,90,3.14,NO,1970-01-01 00:00:01.680909948
101,carnarvon,-24.8667,113.6333,21.06,61,1,4.64,AU,1970-01-01 00:00:01.680909948
102,souillac,-20.5167,57.5167,23.21,94,40,1.54,MU,1970-01-01 00:00:01.680909949
103,cherskiy,68.75,161.3,-18.6,91,99,1.97,RU,1970-01-01 00:00:01.680909949
104,georgetown,5.4112,100.3354,27.96,88,20,1.54,MY,1970-01-01 00:00:01.680909949
105,abha,18.2164,42.5053,14.9,82,0,0.0,SA,1970-01-01 00:00:01.680909949
106,atbasar,51.8,68.3333,-5.85,69,17,5.41,KZ,1970-01-01 00:00:01.680909950
107,yatou,37.15,122.3833,7.33,46,0,4.75,CN,1970-01-01 00:00:01.680909950
108,taman,45.2117,36.7161,8.91,81,99,2.79,RU,1970-01-01 00:00:01.680909950
109,loukhi,66.0764,33.0381,0.58,92,100,3.73,RU,1970-01-01 00:00:01.680909951
110,puerto ayora,-0.7393,-90.3518,28.08,83,97,2.24,EC,1970-01-01 00:00:01.680909952
111,upata,8.0086,-62.3989,26.77,41,100,3.51,VE,1970-01-01 00:00:01.680909952
112,chapais,49.7834,-74.8492,-6.12,78,94,5.84,CA,1970-01-01 00:00:01.680909950
113,hermanus,-34.4187,19.2345,13.22,85,100,4.27,ZA,1970-01-01 00:00:01.680909953
114,beloha,-25.1667,45.05,23.25,84,58,0.94,MG,1970-01-01 00:00:01.680909953
115,kapaa,22.0752,-159.319,26.99,76,40,6.69,US,1970-01-01 00:00:01.680909953
116,udachnyy,66.4167,112.4,-30.26,97,100,2.08,RU,1970-01-01 00:00:01.680909953
117,east london,-33.0153,27.9116,20.37,74,82,4.3,ZA,1970-01-01 00:00:01.680909664
118,alyangula,-13.8483,136.4192,28.55,76,93,4.55,AU,1970-01-01 00:00:01.680909954
119,rio grande,-32.035,-52.0986,20.06,66,26,4.64,BR,1970-01-01 00:00:01.680909706
120,novopavlovka,51.2172,109.2091,-1.15,60,3,1.06,RU,1970-01-01 00:00:01.680909954
121,bengkulu,-3.8004,102.2655,23.88,86,53,1.58,ID,1970-01-01 00:00:01.680909954
122,farafangana,-22.8167,47.8333,23.28,87,100,1.77,MG,1970-01-01 00:00:01.680909955
123,saint-philippe,-21.3585,55.7679,22.77,85,76,3.5,RE,1970-01-01 00:00:01.680909955
124,ginda,30.6945,78.4932,9.07,30,0,4.18,IN,1970-01-01 00:00:01.680909955
125,guru har sahai,30.7167,74.4167,19.33,40,0,2.33,IN,1970-01-01 00:00:01.680909955
126,hambantota,6.1241,81.1185,25.25,78,60,4.11,LK,1970-01-01 00:00:01.680909955
127,la ronge,55.1001,-105.2842,8.12,24,0,7.2,CA,1970-01-01 00:00:01.680909956
128,barraute,48.4335,-77.6328,-1.85,84,100,3.75,CA,1970-01-01 00:00:01.680909956
129,baijiantan,45.6333,85.1833,12.54,54,100,15.99,CN,1970-01-01 00:00:01.680909956
130,te anau,-45.4167,167.7167,10.9,64,15,0.32,NZ,1970-01-01 00:00:01.680909956
131,gizo,-8.103,156.8419,28.63,69,100,1.96,SB,1970-01-01 00:00:01.680909914
132,muros,42.7762,-9.0603,10.47,79,65,1.97,ES,1970-01-01 00:00:01.680909957
133,aswan,24.0934,32.907,26.61,12,0,4.12,EG,1970-01-01 00:00:01.680909957
134,nara,34.6851,135.8049,11.94,59,23,4.65,JP,1970-01-01 00:00:01.680909957
135,butaritari,3.0707,172.7902,27.88,79,55,8.01,KI,1970-01-01 00:00:01.680909958
136,hithadhoo,-0.6,73.0833,27.62,66,38,0.8,MV,1970-01-01 00:00:01.680909958
137,galle,6.0367,80.217,24.58,83,40,3.21,LK,1970-01-01 00:00:01.680909958
138,xaxim,-26.9617,-52.5347,18.21,93,59,1.22,BR,1970-01-01 00:00:01.680909958
139,lensk,60.7253,114.9278,-13.06,88,100,3.86,RU,1970-01-01 00:00:01.680909958
140,talnakh,69.4865,88.3972,-37.01,96,34,1.39,RU,1970-01-01 00:00:01.680909959
141,sungairaya,0.7,108.9,24.3,87,93,0.48,ID,1970-01-01 00:00:01.680909959
142,bondowoso,-7.9135,113.8214,22.11,91,93,1.48,ID,1970-01-01 00:00:01.680909959
143,darhan,49.4867,105.9228,1.68,40,1,4.13,MN,1970-01-01 00:00:01.680909959
144,bambous virieux,-20.3428,57.7575,24.56,94,40,1.54,MU,1970-01-01 00:00:01.680909960
145,artyshta,54.1222,86.2909,-8.6,79,100,7.09,RU,1970-01-01 00:00:01.680909960
146,progreso,21.2833,-89.6667,35.06,67,6,8.35,MX,1970-01-01 00:00:01.680909960
147,keflavik,64.0049,-22.5624,8.95,87,75,15.95,IS,1970-01-01 00:00:01.680909960
148,barra,-11.0894,-43.1417,26.98,47,16,2.4,BR,1970-01-01 00:00:01.680909961
149,hasaki,35.7333,140.8333,19.22,78,30,1.03,JP,1970-01-01 00:00:01.680909961
150,el alto,-4.2714,-81.2147,25.81,75,85,3.41,PE,1970-01-01 00:00:01.680909961
151,kirakira,-10.4544,161.9205,29.69,69,33,2.01,SB,1970-01-01 00:00:01.680909961
152,flinders,-34.5833,150.8552,20.59,64,38,3.13,AU,1970-01-01 00:00:01.680909961
153,kirchzarten,47.9667,7.95,6.41,91,97,0.55,DE,1970-01-01 00:00:01.680909962
154,merauke,-8.4667,140.3333,26.25,84,100,1.57,ID,1970-01-01 00:00:01.680909962
155,henties bay,-22.116,14.2845,15.71,92,14,2.22,NA,1970-01-01 00:00:01.680909963
156,thompson,55.7435,-97.8558,6.09,26,40,6.17,CA,1970-01-01 00:00:01.680909963
157,thessalon,46.2501,-83.5666,1.16,64,34,4.35,CA,1970-01-01 00:00:01.680909957
158,gravdal,68.1214,13.5031,4.94,93,75,8.23,NO,1970-01-01 00:00:01.680909964
159,avarua,-21.2078,-159.775,30.03,74,20,6.69,CK,1970-01-01 00:00:01.680909965
160,vaasa,63.096,21.6158,-1.64,97,0,1.79,FI,1970-01-01 00:00:01.680909965
161,nieuw amsterdam,5.8833,-55.0833,27.01,69,100,5.14,SR,1970-01-01 00:00:01.680909966
162,shingu,33.7333,135.9833,13.98,67,20,3.39,JP,1970-01-01 00:00:01.680909966
163,yulara,-25.2406,130.9889,19.07,46,5,6.02,AU,1970-01-01 00:00:01.680909967
164,new norfolk,-42.7826,147.0587,14.84,66,86,0.89,AU,1970-01-01 00:00:01.680909967
165,shelburne,44.0787,-80.2041,-0.43,58,0,4.37,CA,1970-01-01 00:00:01.680909968
166,olafsvik,64.8945,-23.7142,6.74,78,99,17.72,IS,1970-01-01 00:00:01.680909968
167,alihe,50.5667,123.7167,-3.26,62,18,0.66,CN,1970-01-01 00:00:01.680909968
168,isangel,-19.55,169.2667,28.03,68,4,1.87,VU,1970-01-01 00:00:01.680909968
169,hualmay,-11.0964,-77.6139,25.97,73,100,4.67,PE,1970-01-01 00:00:01.680909969
170,fortuna,40.5982,-124.1573,12.59,80,99,1.79,US,1970-01-01 00:00:01.680909969
171,lompoc,34.6391,-120.4579,20.94,68,75,6.26,US,1970-01-01 00:00:01.680909911
172,jackson,42.4165,-122.8345,14.84,63,100,4.12,US,1970-01-01 00:00:01.680909951
173,cabedelo,-6.9811,-34.8339,27.37,81,49,4.68,BR,1970-01-01 00:00:01.680909971
174,hovd,48.0056,91.6419,2.16,32,97,3.45,MN,1970-01-01 00:00:01.680909971
175,deputatskiy,69.3,139.9,-24.04,100,100,1.63,RU,1970-01-01 00:00:01.680909941
176,port elizabeth,-33.918,25.5701,18.51,86,20,3.6,ZA,1970-01-01 00:00:01.680909972
177,ahuimanu,21.4447,-157.8378,27.84,74,40,8.23,US,1970-01-01 00:00:01.680909972
178,luena,-11.7833,19.9167,19.1,82,74,0.0,AO,1970-01-01 00:00:01.680909973
179,mosesgegh,40.9057,45.4864,8.95,89,93,0.66,AM,1970-01-01 00:00:01.680909973
180,hajan,34.3,74.6167,7.01,47,0,1.92,IN,1970-01-01 00:00:01.680909973
181,tezu,27.9167,96.1667,18.92,54,28,2.13,IN,1970-01-01 00:00:01.680909974
182,nesna,66.1967,13.0213,2.29,94,100,8.23,NO,1970-01-01 00:00:01.680909975
183,marana,32.4367,-111.2254,29.75,12,99,6.12,US,1970-01-01 00:00:01.680909698
184,kodiak,57.79,-152.4072,1.73,60,100,5.14,US,1970-01-01 00:00:01.680909976
185,vilcun,-38.65,-72.2333,13.41,45,100,1.44,CL,1970-01-01 00:00:01.680909976
186,klaksvik,62.2266,-6.589,6.51,91,12,9.41,FO,1970-01-01 00:00:01.680909976
187,sosua,19.7667,-70.5167,23.95,88,40,5.14,DO,1970-01-01 00:00:01.680909977
188,schoneiche,52.4667,13.6833,5.75,95,100,3.6,DE,1970-01-01 00:00:01.680909977
189,nemuro,43.3236,145.575,2.41,97,100,4.64,JP,1970-01-01 00:00:01.680909978
190,luderitz,-26.6481,15.1594,15.86,71,0,6.66,NA,1970-01-01 00:00:01.680909978
191,skelleftea,64.7507,20.9528,0.2,92,0,3.6,SE,1970-01-01 00:00:01.680909979
192,changping,40.2186,116.2197,12.8,25,0,3.37,CN,1970-01-01 00:00:01.680909980
193,ouallam,14.3188,2.0866,31.63,21,36,4.26,NE,1970-01-01 00:00:01.680909980
194,biak,-0.9131,122.8766,25.52,76,98,1.55,ID,1970-01-01 00:00:01.680909980
195,albanel,48.8832,-72.4487,-2.92,39,100,6.69,CA,1970-01-01 00:00:01.680909982
196,yaan,7.3833,8.5667,28.02,68,72,5.26,NG,1970-01-01 00:00:01.680909983
197,boyolangu,-8.1181,111.8935,23.83,86,100,1.18,ID,1970-01-01 00:00:01.680909983
198,zelenoborsk,61.4669,64.0333,-6.5,85,100,4.91,RU,1970-01-01 00:00:01.680909984
199,pelym,61.0108,61.9978,-6.65,85,47,3.49,RU,1970-01-01 00:00:01.680909984
200,mehamn,71.0357,27.8492,2.95,93,100,2.06,NO,1970-01-01 00:00:01.680909985
201,bairiki,1.3292,172.9752,30.0,74,40,5.14,KI,1970-01-01 00:00:01.680909986
202,the valley,18.217,-63.0578,25.92,88,40,7.72,AI,1970-01-01 00:00:01.680909729
203,dingle,10.9995,122.6711,25.07,78,99,2.79,PH,1970-01-01 00:00:01.680909987
204,aqtobe,50.2797,57.2072,0.05,69,75,10.0,KZ,1970-01-01 00:00:01.680909987
205,kiama,-34.6833,150.8667,20.7,63,33,4.02,AU,1970-01-01 00:00:01.680909871
206,mackenzie,55.2999,-123.1698,9.12,34,75,5.14,CA,1970-01-01 00:00:01.680909988
207,basco,20.4487,121.9702,23.06,78,100,14.04,PH,1970-01-01 00:00:01.680909988
208,constitucion,-35.3333,-72.4167,15.45,62,63,5.08,CL,1970-01-01 00:00:01.680909989
209,vilhena,-12.7406,-60.1458,23.12,88,20,3.09,BR,1970-01-01 00:00:01.680909989
210,lebu,-37.6167,-73.65,12.66,81,99,7.29,CL,1970-01-01 00:00:01.680909990
211,parian dakula,5.5567,120.7719,27.44,76,6,7.4,PH,1970-01-01 00:00:01.680909990
212,murgab,37.4966,61.9714,18.93,42,75,0.0,TM,1970-01-01 00:00:01.680909975
213,kavieng,-2.5744,150.7967,27.95,80,98,4.61,PG,1970-01-01 00:00:01.680909792
214,cordele,31.9635,-83.7824,26.99,61,0,0.0,US,1970-01-01 00:00:01.680909992
215,edson,53.5835,-116.4356,8.08,57,0,0.0,CA,1970-01-01 00:00:01.680909992
216,frolovo,49.7713,43.6622,6.88,59,70,6.33,RU,1970-01-01 00:00:01.680909992
217,sharjah,25.3573,55.4033,23.99,83,0,2.57,AE,1970-01-01 00:00:01.680909993
218,gayeri,12.6497,0.4931,33.73,23,77,2.79,BF,1970-01-01 00:00:01.680909993
219,svetlyy,54.675,20.1347,10.03,93,100,2.04,RU,1970-01-01 00:00:01.680909994
220,cayenne,4.9333,-52.3333,26.02,73,75,1.54,GF,1970-01-01 00:00:01.680909994
221,kununurra,-15.7667,128.7333,27.99,78,100,1.54,AU,1970-01-01 00:00:01.680909994
222,camp verde,34.5636,-111.8543,23.24,20,98,5.48,US,1970-01-01 00:00:01.680909994
223,sovetskiy,61.3614,63.5842,-6.3,81,96,5.09,RU,1970-01-01 00:00:01.680909995
224,sayyan,15.1718,44.3244,15.56,66,20,0.85,YE,1970-01-01 00:00:01.680909995
225,saint george,37.1041,-113.5841,21.33,18,0,5.66,US,1970-01-01 00:00:01.680909995
226,soavinandriana,-19.1667,46.7333,15.15,94,100,1.06,MG,1970-01-01 00:00:01.680909996
227,labuhan,-6.8844,112.2051,24.84,85,93,2.72,ID,1970-01-01 00:00:01.680909996
228,half moon bay,37.4636,-122.4286,16.07,87,40,5.14,US,1970-01-01 00:00:01.680909996
229,aldan,58.6031,125.3894,-7.33,79,100,4.41,RU,1970-01-01 00:00:01.680909997
230,tuatapere,-46.1333,167.6833,12.36,61,8,1.71,NZ,1970-01-01 00:00:01.680909997
231,lodi,38.1302,-121.2725,18.25,78,100,1.24,US,1970-01-01 00:00:01.680909847
232,boguchany,58.3814,97.4531,-17.29,79,58,3.79,RU,1970-01-01 00:00:01.680909998
233,kargat,55.1956,80.2811,-14.36,92,7,3.84,RU,1970-01-01 00:00:01.680909998
234,saint-denis,48.9167,2.3333,8.88,82,0,4.63,FR,1970-01-01 00:00:01.680909998
235,peachland,49.7665,-119.7357,11.51,99,100,1.35,CA,1970-01-01 00:00:01.680909998
236,salalah,17.0151,54.0924,27.05,74,20,1.54,OM,1970-01-01 00:00:01.680909999
237,puerto palomas,31.7667,-107.6167,21.05,17,0,3.91,MX,1970-01-01 00:00:01.680909999
238,clyde river,70.4692,-68.5914,-20.87,77,0,6.69,CA,1970-01-01 00:00:01.680909999
239,aklavik,68.2191,-135.0107,-11.9,85,100,3.62,CA,1970-01-01 00:00:01.680909999
240,sakakah,29.9697,40.2064,17.76,13,0,3.06,SA,1970-01-01 00:00:01.680909999
241,abong mbang,3.9833,13.1833,21.3,88,69,1.38,CM,1970-01-01 00:00:01.680910000
242,vila do maio,15.1333,-23.2167,22.44,77,71,7.02,CV,1970-01-01 00:00:01.680910000
243,san carlos,9.6612,-68.5827,30.4,45,92,1.19,VE,1970-01-01 00:00:01.680910001
244,lata,40.1629,-8.3327,13.84,65,55,1.35,PT,1970-01-01 00:00:01.680910001
245,yuzawa,39.1667,140.5,10.06,83,100,3.3,JP,1970-01-01 00:00:01.680910001
246,mabaruma,8.2,-59.7833,23.8,77,100,2.74,GY,1970-01-01 00:00:01.680910001
247,moree,-29.4667,149.85,20.85,40,0,7.59,AU,1970-01-01 00:00:01.680910002
248,ouegoa,-20.35,164.4333,26.92,63,2,0.6,NC,1970-01-01 00:00:01.680910002
249,kaitangata,-46.2817,169.8464,14.4,74,7,2.29,NZ,1970-01-01 00:00:01.680910002
250,hervey bay,-25.2986,152.8535,25.03,73,1,5.78,AU,1970-01-01 00:00:01.680910003
251,khatanga,71.9667,102.5,-21.18,96,100,6.21,RU,1970-01-01 00:00:01.680910003
252,kalachinsk,55.0529,74.5751,-7.77,60,6,3.1,RU,1970-01-01 00:00:01.680910003
253,provideniya,64.3833,-173.3,-19.34,76,43,1.7,RU,1970-01-01 00:00:01.680910003
254,maputo,-25.9653,32.5892,23.46,76,0,4.12,MZ,1970-01-01 00:00:01.680910004
255,saskylakh,71.9167,114.0833,-21.25,90,99,4.93,RU,1970-01-01 00:00:01.680910005
256,sistranda,63.7256,8.834,4.98,82,92,7.9,NO,1970-01-01 00:00:01.680910006
257,usinsk,65.9939,57.5281,0.88,84,100,9.58,RU,1970-01-01 00:00:01.680909887
258,strezhevoy,60.7333,77.5889,-11.74,84,86,6.7,RU,1970-01-01 00:00:01.680910006
259,rocha,-34.4833,-54.3333,14.81,82,90,1.43,UY,1970-01-01 00:00:01.680909751
260,green valley,31.8543,-110.9937,27.98,12,80,6.37,US,1970-01-01 00:00:01.680910006
261,vanimo,-2.6741,141.3028,26.85,79,100,0.9,PG,1970-01-01 00:00:01.680910007
262,normandin,48.8333,-72.5321,-2.83,39,100,6.69,CA,1970-01-01 00:00:01.680910007
263,komsomolskiy,40.4272,71.7189,14.4,54,100,3.09,UZ,1970-01-01 00:00:01.680910007
264,thaba-tseka,-29.522,28.6084,11.06,56,32,2.34,LS,1970-01-01 00:00:01.680910007
265,rennes,48.1667,-1.6667,8.02,81,0,3.09,FR,1970-01-01 00:00:01.680910008
266,belyy yar,53.6039,91.3903,-6.06,86,100,5.0,RU,1970-01-01 00:00:01.680909964
267,kenai,60.5544,-151.2583,1.05,43,0,3.6,US,1970-01-01 00:00:01.680910008
268,lavrentiya,65.5833,-171.0,-19.23,70,100,2.78,RU,1970-01-01 00:00:01.680910008
269,meulaboh,4.1363,96.1285,24.25,88,100,2.49,ID,1970-01-01 00:00:01.680909949
270,acheng,45.5454,126.977,-0.24,70,86,2.3,CN,1970-01-01 00:00:01.680910009
271,santa cruz,-17.8,-63.1667,25.03,73,88,5.14,BO,1970-01-01 00:00:01.680910009
272,temir,49.1414,57.13,4.44,75,87,8.93,KZ,1970-01-01 00:00:01.680910010
273,chicama,-7.8447,-79.1469,27.3,68,95,3.43,PE,1970-01-01 00:00:01.680910010
274,the pas,53.8251,-101.2541,2.01,44,0,6.69,CA,1970-01-01 00:00:01.680910010
275,hoquiam,46.9809,-123.8893,10.56,74,100,6.69,US,1970-01-01 00:00:01.680910010
276,sharlyk,52.9167,54.75,-0.97,54,0,6.76,RU,1970-01-01 00:00:01.680910011
277,ushtobe,45.2514,77.9838,8.33,80,10,4.52,KZ,1970-01-01 00:00:01.680910011
278,goundam,16.4145,-3.6708,29.23,15,76,4.68,ML,1970-01-01 00:00:01.680910011
279,otorohanga,-38.1833,175.2,20.74,51,96,1.86,NZ,1970-01-01 00:00:01.680910012
280,maniitsoq,65.4167,-52.9,-2.95,71,43,7.61,GL,1970-01-01 00:00:01.680910012
281,urusha,54.05,122.9,-9.89,86,76,0.91,RU,1970-01-01 00:00:01.680910013
282,grants pass,42.439,-123.3284,15.65,63,20,3.6,US,1970-01-01 00:00:01.680909797
283,pekalongan,-6.8886,109.6753,24.45,82,90,1.53,ID,1970-01-01 00:00:01.680910014
284,kuusamo,65.9667,29.1833,0.02,86,20,5.14,FI,1970-01-01 00:00:01.680910014
285,pevek,69.7008,170.3133,-25.48,95,74,0.96,RU,1970-01-01 00:00:01.680910014
286,lagoa,39.05,-27.9833,12.83,61,22,5.21,PT,1970-01-01 00:00:01.680910014
287,taoudenni,22.6783,-3.9836,26.14,12,1,4.38,ML,1970-01-01 00:00:01.680910014
288,oranjemund,-28.55,16.4333,15.26,93,38,2.83,NA,1970-01-01 00:00:01.680910014
289,asau,46.4333,26.4,-0.4,99,100,0.62,RO,1970-01-01 00:00:01.680910015
290,bathsheba,13.2167,-59.5167,26.34,69,20,10.29,BB,1970-01-01 00:00:01.680910015
291,nome,64.5011,-165.4064,-18.8,71,0,4.12,US,1970-01-01 00:00:01.680910015
292,jashpurnagar,22.9,84.15,21.64,26,16,2.25,IN,1970-01-01 00:00:01.680910015
293,palmer,42.1584,-72.3287,7.01,37,75,4.12,US,1970-01-01 00:00:01.680909973
294,viedma,-40.8135,-62.9967,15.5,70,97,2.53,AR,1970-01-01 00:00:01.680909957
295,san patricio,28.017,-97.5169,17.91,89,100,4.79,US,1970-01-01 00:00:01.680910016
296,ponta do sol,32.6667,-17.1,18.34,70,65,1.35,PT,1970-01-01 00:00:01.680910016
297,ouricuri,-7.8825,-40.0817,26.22,58,100,0.9,BR,1970-01-01 00:00:01.680909973
298,kampene,-3.6,26.6667,21.0,97,88,1.01,CD,1970-01-01 00:00:01.680910017
299,san rafael,-34.6177,-68.3301,24.3,37,83,4.24,AR,1970-01-01 00:00:01.680910017
300,saint-augustin,51.226,-58.6502,0.3,58,97,6.54,CA,1970-01-01 00:00:01.680910017
301,tyukalinsk,55.8732,72.1967,-8.5,68,6,2.57,RU,1970-01-01 00:00:01.680910018
302,zhanaozen,43.3,52.8,10.76,85,89,5.09,KZ,1970-01-01 00:00:01.680910018
303,san cristobal,7.7669,-72.225,21.1,66,100,0.7,VE,1970-01-01 00:00:01.680910018
304,richards bay,-28.783,32.0377,20.04,95,1,2.09,ZA,1970-01-01 00:00:01.680910019
305,katangli,51.7102,143.2326,-1.74,95,100,6.03,RU,1970-01-01 00:00:01.680910019
306,chipinge,-20.1883,32.6236,14.95,70,0,1.62,ZW,1970-01-01 00:00:01.680910020
307,sakaiminato,35.55,133.2333,11.99,54,75,5.66,JP,1970-01-01 00:00:01.680910020
308,dibulla,11.2725,-73.3091,24.69,87,83,1.02,CO,1970-01-01 00:00:01.680910020
309,khani,41.9563,42.9566,4.76,98,100,1.59,GE,1970-01-01 00:00:01.680910020
310,mangrol,21.1167,70.1167,25.42,67,11,4.0,IN,1970-01-01 00:00:01.680910021
311,awbari,26.5921,12.7805,24.22,22,93,3.79,LY,1970-01-01 00:00:01.680910021
312,smithers,54.7804,-127.1743,7.18,61,75,2.57,CA,1970-01-01 00:00:01.680910021
313,guerrero negro,27.9769,-114.0611,19.91,40,6,6.99,MX,1970-01-01 00:00:01.680910022
314,omsukchan,62.5333,155.8,-12.22,83,30,1.13,RU,1970-01-01 00:00:01.680909988
315,snezhnogorsk,69.1933,33.2531,4.88,89,100,8.42,RU,1970-01-01 00:00:01.680910022
316,raseiniai,55.3736,23.1217,8.92,94,100,2.3,LT,1970-01-01 00:00:01.680910024
317,inuvik,68.3499,-133.7218,-12.58,61,0,4.12,CA,1970-01-01 00:00:01.680909888
318,luangwa,-15.6167,30.4167,19.76,88,7,0.95,ZM,1970-01-01 00:00:01.680910025
319,atar,20.5169,-13.0499,26.07,18,95,0.27,MR,1970-01-01 00:00:01.680910025
320,tigre,-34.426,-58.5796,21.79,74,0,3.6,AR,1970-01-01 00:00:01.680910026
321,mfou,3.7159,11.6427,21.35,98,96,2.11,CM,1970-01-01 00:00:01.680910026
322,mormugao,15.4,73.8,26.59,83,40,2.06,IN,1970-01-01 00:00:01.680910026
323,ust-nera,64.5667,143.2,-19.19,91,52,0.98,RU,1970-01-01 00:00:01.680910027
324,leh,34.1667,77.5833,-9.97,66,2,0.98,IN,1970-01-01 00:00:01.680910027
325,savannah bight,16.45,-85.85,26.39,79,0,9.13,HN,1970-01-01 00:00:01.680910027
326,seoul,37.5683,126.9778,8.76,62,0,3.09,KR,1970-01-01 00:00:01.680909912
327,gbarnga,6.9956,-9.4722,23.39,95,62,1.15,LR,1970-01-01 00:00:01.680910028
328,tanggu,39.0211,117.6469,10.98,31,0,4.5,CN,1970-01-01 00:00:01.680910028
329,vimperk,49.0586,13.7829,4.52,64,100,1.16,CZ,1970-01-01 00:00:01.680910029
330,arraial do cabo,-22.9661,-42.0278,23.83,87,100,5.76,BR,1970-01-01 00:00:01.680910006
331,woodward,36.4337,-99.3904,21.65,15,0,5.14,US,1970-01-01 00:00:01.680909952
332,palafrugell,41.9174,3.1631,15.26,9,83,2.12,ES,1970-01-01 00:00:01.680910030
333,winnemucca,40.973,-117.7357,11.46,43,100,6.1,US,1970-01-01 00:00:01.680910030
334,saint anthony,45.0205,-93.218,10.0,52,0,6.69,US,1970-01-01 00:00:01.680910030
335,flin flon,54.7682,-101.865,2.91,41,0,4.12,CA,1970-01-01 00:00:01.680910031
336,mackay,-21.15,149.2,29.82,84,47,3.45,AU,1970-01-01 00:00:01.680909880
337,ugoofaaru,5.6667,73.0,27.94,73,17,2.51,MV,1970-01-01 00:00:01.680910031
338,kruisfontein,-34.0033,24.7314,16.6,86,31,3.24,ZA,1970-01-01 00:00:01.680910032
339,takoradi,4.8845,-1.7554,27.02,85,99,3.38,GH,1970-01-01 00:00:01.680909908
340,manyana,-23.4,21.7167,20.98,52,50,3.59,BW,1970-01-01 00:00:01.680910033
341,belmonte,-15.8631,-38.8828,25.38,81,51,2.77,BR,1970-01-01 00:00:01.680910034
342,pisco,-13.7,-76.2167,25.03,83,0,7.2,PE,1970-01-01 00:00:01.680910034
343,martapura,-3.4167,114.85,25.05,94,98,1.54,ID,1970-01-01 00:00:01.680910034
344,quelimane,-17.8786,36.8883,20.91,95,7,1.88,MZ,1970-01-01 00:00:01.680910034
345,likasi,-10.9814,26.7333,16.02,97,97,1.04,CD,1970-01-01 00:00:01.680910035
346,bonavista,48.6499,-53.1147,1.23,84,92,6.59,CA,1970-01-01 00:00:01.680910035
347,glinka,54.6404,32.8781,4.8,77,90,2.92,RU,1970-01-01 00:00:01.680910036
348,zemio,5.0314,25.1361,23.93,63,45,0.57,CF,1970-01-01 00:00:01.680910036
349,necochea,-38.5473,-58.7368,18.62,70,91,4.95,AR,1970-01-01 00:00:01.680910036
350,nanga eboko,4.6833,12.3667,20.95,95,81,1.43,CM,1970-01-01 00:00:01.680910036
351,esperance,-33.8667,121.9,15.0,79,100,6.08,AU,1970-01-01 00:00:01.680910037
352,caravelas,-17.7125,-39.2481,24.51,88,34,2.54,BR,1970-01-01 00:00:01.680910037
353,kimberley,-28.7323,24.7623,17.83,63,55,3.09,ZA,1970-01-01 00:00:01.680910038
354,quzhou,28.9594,118.8686,11.9,78,48,1.98,CN,1970-01-01 00:00:01.680910038
355,zapolyarnyy,69.4154,30.8136,1.6,97,100,9.03,RU,1970-01-01 00:00:01.680910038
356,kailua,21.4022,-157.7394,27.99,75,40,6.17,US,1970-01-01 00:00:01.680910038
357,pingliang,35.5392,106.6861,5.68,65,94,1.99,CN,1970-01-01 00:00:01.680910039
358,gualeguay,-33.1416,-59.3097,19.25,64,19,3.22,AR,1970-01-01 00:00:01.680910039
359,comodoro rivadavia,-45.8667,-67.5,13.92,51,0,0.0,AR,1970-01-01 00:00:01.680909778
360,aitape,-3.1374,142.3475,27.27,74,100,0.84,PG,1970-01-01 00:00:01.680909942
361,miyang,24.4042,103.4428,15.43,83,45,1.54,CN,1970-01-01 00:00:01.680910040
362,lenger,42.183,69.8839,4.69,70,13,3.13,KZ,1970-01-01 00:00:01.680910041
363,urumqi,43.801,87.6005,11.53,16,0,10.0,CN,1970-01-01 00:00:01.680910041
364,porto recanati,43.4365,13.6613,11.73,37,100,2.09,IT,1970-01-01 00:00:01.680910042
365,anloga,5.7947,0.8973,28.25,80,91,5.15,GH,1970-01-01 00:00:01.680910042
366,nanakuli,21.3906,-158.1547,27.97,60,75,6.17,US,1970-01-01 00:00:01.680910043
367,pueblo nuevo,23.3833,-105.3833,21.12,15,1,3.72,MX,1970-01-01 00:00:01.680910043
368,irbeyskoye,55.6428,95.4522,-8.54,82,100,4.04,RU,1970-01-01 00:00:01.680910043
369,adrar,20.5022,-10.0711,26.48,20,99,3.81,MR,1970-01-01 00:00:01.680910044
370,ilulissat,69.2167,-51.1,-5.99,68,66,6.69,GL,1970-01-01 00:00:01.680910044
371,sinjar,36.3209,41.8754,14.06,51,26,4.74,IQ,1970-01-01 00:00:01.680910045
372,havoysund,70.9963,24.6622,2.13,99,100,7.89,NO,1970-01-01 00:00:01.680910045
373,wiltz,49.9689,5.9319,5.72,81,35,2.45,LU,1970-01-01 00:00:01.680910046
374,chernyshevskiy,63.0128,112.4714,-22.36,95,70,4.81,RU,1970-01-01 00:00:01.680910047
375,chokurdakh,70.6333,147.9167,-22.33,97,55,1.46,RU,1970-01-01 00:00:01.680910047
376,palau,7.503,134.621,25.98,89,100,0.0,PW,1970-01-01 00:00:01.680910047
377,sheridan,44.8333,-106.9173,8.21,49,0,1.54,US,1970-01-01 00:00:01.680910048
378,ahipara,-35.1667,173.1667,19.27,63,100,3.61,NZ,1970-01-01 00:00:01.680910048
379,laibin,23.7,109.2667,15.55,73,96,4.82,CN,1970-01-01 00:00:01.680910049
380,burnie,-41.0667,145.9167,15.25,78,57,5.52,AU,1970-01-01 00:00:01.680910049
381,heihe,50.2441,127.4902,-0.68,50,0,4.28,CN,1970-01-01 00:00:01.680910049
382,san quintin,30.4833,-115.95,17.05,60,7,7.98,MX,1970-01-01 00:00:01.680910050
383,kargopol,61.5071,38.9456,-8.41,98,31,1.01,RU,1970-01-01 00:00:01.680910051
384,dinard,48.6314,-2.0614,7.57,86,0,3.09,FR,1970-01-01 00:00:01.680910052
385,anchorage,61.2181,-149.9003,-0.51,52,100,3.09,US,1970-01-01 00:00:01.680909872
386,malmyzh,56.5205,50.6818,-1.04,67,0,2.33,RU,1970-01-01 00:00:01.680910053
387,astana,51.1801,71.446,-7.03,73,75,6.0,KZ,1970-01-01 00:00:01.680910053
388,boa vista,2.8197,-60.6733,29.99,42,20,3.6,BR,1970-01-01 00:00:01.680910053
389,grindavik,63.8424,-22.4338,8.97,87,75,15.95,IS,1970-01-01 00:00:01.680910054
390,tshikapa,-6.4167,20.8,21.71,94,100,0.83,CD,1970-01-01 00:00:01.680910054
391,rondonopolis,-16.4708,-54.6356,23.06,89,92,0.78,BR,1970-01-01 00:00:01.680910054
392,dali,25.7,100.1833,9.37,55,0,1.52,CN,1970-01-01 00:00:01.680910055
393,weligama,5.9667,80.4167,23.86,87,41,2.9,LK,1970-01-01 00:00:01.680910055
394,camacha,33.0833,-16.3333,15.68,59,40,2.06,PT,1970-01-01 00:00:01.680910055
395,sinnamary,5.3833,-52.95,24.61,80,56,3.77,GF,1970-01-01 00:00:01.680910055
396,qianjiang,30.4151,112.8859,11.85,64,57,2.31,CN,1970-01-01 00:00:01.680910057
397,krasnoselkup,65.7,82.4667,-8.47,96,100,1.16,RU,1970-01-01 00:00:01.680910057
398,naryan-mar,67.6713,53.087,0.66,86,75,7.93,RU,1970-01-01 00:00:01.680910057
399,bambanglipuro,-7.95,110.2833,23.72,85,96,1.55,ID,1970-01-01 00:00:01.680910058
400,high level,58.5169,-117.136,12.06,37,75,4.12,CA,1970-01-01 00:00:01.680910058
401,yerbogachen,61.2767,108.0108,-23.96,89,19,4.81,RU,1970-01-01 00:00:01.680910058
402,sokode,8.9833,1.1333,25.34,66,100,0.87,TG,1970-01-01 00:00:01.680910059
403,tselinnoye,53.0833,85.6667,-4.77,91,100,5.99,RU,1970-01-01 00:00:01.680910059
404,terrak,65.087,12.3715,3.93,98,100,3.48,NO,1970-01-01 00:00:01.680910059
405,humboldt,40.6665,-123.9178,9.26,82,100,1.77,US,1970-01-01 00:00:01.680910059
406,cockburn town,21.4612,-71.1419,24.98,65,40,3.6,TC,1970-01-01 00:00:01.680910060
407,jaciara,-15.9653,-54.9683,22.92,87,75,1.15,BR,1970-01-01 00:00:01.680910060
408,vila,42.0304,-8.1588,9.49,63,41,1.49,PT,1970-01-01 00:00:01.680910060
409,linxi,39.7,118.4333,8.08,31,0,3.26,CN,1970-01-01 00:00:01.680910061
410,camden,39.7835,-74.9663,12.44,35,100,0.45,US,1970-01-01 00:00:01.680909896
411,makakilo city,21.3469,-158.0858,27.18,66,75,8.23,US,1970-01-01 00:00:01.680910061
412,bosaso,11.2842,49.1816,27.79,68,42,0.9,SO,1970-01-01 00:00:01.680910062
413,sherlovaya gora,50.5667,116.25,-1.5,51,60,2.64,RU,1970-01-01 00:00:01.680910062
414,abu kamal,34.4506,40.9171,21.16,25,61,4.04,SY,1970-01-01 00:00:01.680910063
415,ostrovnoy,68.0531,39.5131,0.02,90,83,9.25,RU,1970-01-01 00:00:01.680910063
416,fairbanks,64.8378,-147.7164,-6.62,49,0,2.06,US,1970-01-01 00:00:01.680910063
417,witbank,-25.8713,29.2332,14.22,44,1,1.57,ZA,1970-01-01 00:00:01.680910063
418,leeton,-34.5667,146.4,17.16,72,81,7.67,AU,1970-01-01 00:00:01.680910063
419,murdochville,48.9583,-65.5006,-4.51,82,85,8.13,CA,1970-01-01 00:00:01.680910064
420,vila velha,-20.3297,-40.2925,26.08,86,75,1.54,BR,1970-01-01 00:00:01.680909982
421,serenje,-13.2325,30.2352,15.15,98,25,1.88,ZM,1970-01-01 00:00:01.680910066
422,carutapera,-1.195,-46.02,24.05,92,100,2.29,BR,1970-01-01 00:00:01.680910066
423,norcasia,5.5778,-74.8852,22.15,95,100,1.17,CO,1970-01-01 00:00:01.680910066
424,vangaindrano,-23.35,47.6,22.74,90,100,0.73,MG,1970-01-01 00:00:01.680910067
425,xichang,27.8964,102.2634,9.75,75,38,0.77,CN,1970-01-01 00:00:01.680910067
426,xian,34.2583,108.9286,10.45,50,91,1.34,CN,1970-01-01 00:00:01.680910067
427,bandundu,-3.3167,17.3667,23.37,95,100,1.47,CD,1970-01-01 00:00:01.680910068
428,worland,44.0169,-107.9554,13.66,28,0,6.69,US,1970-01-01 00:00:01.680910068
429,pauini,-7.7136,-66.9764,23.28,97,100,0.81,BR,1970-01-01 00:00:01.680910068
430,kvarkeno,52.0833,59.725,-4.29,68,35,5.86,RU,1970-01-01 00:00:01.680910069
431,santa vitoria,-18.8386,-50.1214,22.82,85,92,1.57,BR,1970-01-01 00:00:01.680910069
432,kerema,-7.9631,145.7785,25.68,86,100,1.93,PG,1970-01-01 00:00:01.680910069
433,kawalu,-7.3817,108.2082,21.09,92,88,0.74,ID,1970-01-01 00:00:01.680910070
434,ninh binh,20.2539,105.975,20.39,94,100,3.37,VN,1970-01-01 00:00:01.680910070
435,pilar,-9.5972,-35.9567,26.96,88,100,1.43,BR,1970-01-01 00:00:01.680910070
436,codrington,-38.2667,141.9667,13.42,77,79,7.34,AU,1970-01-01 00:00:01.680910070
437,koulamoutou,-1.1303,12.4736,23.07,90,100,0.35,GA,1970-01-01 00:00:01.680910071
438,vitim,59.4511,112.5578,-12.18,90,100,3.18,RU,1970-01-01 00:00:01.680910071
439,aykhal,66.0,111.5,-29.22,93,90,9.66,RU,1970-01-01 00:00:01.680910071
440,middlebury,44.0153,-73.1673,3.28,43,0,4.63,US,1970-01-01 00:00:01.680910072
441,urucara,-2.5364,-57.76,24.63,91,96,1.71,BR,1970-01-01 00:00:01.680910072
442,shaowu,27.3409,117.4831,13.0,80,49,0.7,CN,1970-01-01 00:00:01.680910072
443,anadyr,64.75,177.4833,-18.72,78,20,1.0,RU,1970-01-01 00:00:01.680910073
444,isabela,6.7085,121.9711,26.03,78,51,2.81,PH,1970-01-01 00:00:01.680910073
445,krynychky,48.3755,34.467,8.05,96,100,4.13,UA,1970-01-01 00:00:01.680910073
446,syracuse,37.0881,15.2792,11.65,76,87,1.8,IT,1970-01-01 00:00:01.680909992
447,aloleng,16.1307,119.7824,27.2,72,100,3.26,PH,1970-01-01 00:00:01.680910074
448,namibe,-15.1961,12.1522,25.39,75,100,2.37,AO,1970-01-01 00:00:01.680910075
449,harrisonville,38.6533,-94.3488,18.39,20,0,3.09,US,1970-01-01 00:00:01.680910075
450,port augusta,-32.5,137.7667,18.97,59,44,6.41,AU,1970-01-01 00:00:01.680910076
451,high rock,26.6208,-78.2833,26.01,69,69,6.37,BS,1970-01-01 00:00:01.680910076
452,papar,5.7333,115.9333,25.0,84,42,1.26,MY,1970-01-01 00:00:01.680910076
453,nurota,40.5614,65.6886,16.9,44,100,2.71,UZ,1970-01-01 00:00:01.680910076
454,bismil,37.8486,40.6658,17.06,56,73,6.61,TR,1970-01-01 00:00:01.680910076
455,khash,28.2211,61.2158,16.25,42,11,1.55,IR,1970-01-01 00:00:01.680910077
456,rafai,4.95,23.9167,22.79,76,53,1.22,CF,1970-01-01 00:00:01.680910077
457,kimbe,-5.5502,150.1429,27.3,81,91,0.01,PG,1970-01-01 00:00:01.680910077
458,esperantina,-3.9017,-42.2336,23.56,96,100,1.79,BR,1970-01-01 00:00:01.680910078
459,ust-tsilma,65.441,52.1498,0.88,96,100,4.21,RU,1970-01-01 00:00:01.680910078
460,nanortalik,60.1432,-45.2371,-0.83,91,100,3.52,GL,1970-01-01 00:00:01.680910078
461,teahupoo,-17.8333,-149.2667,27.98,79,100,9.45,PF,1970-01-01 00:00:01.680910078
462,cao bang,22.6667,106.25,18.9,87,100,1.14,VN,1970-01-01 00:00:01.680910079
463,kushima,31.4583,131.2333,12.28,58,1,5.99,JP,1970-01-01 00:00:01.680910079
464,tulancingo,20.0833,-98.3667,16.61,76,73,2.89,MX,1970-01-01 00:00:01.680909875
465,hamilton,39.1834,-84.5333,12.8,41,0,4.63,US,1970-01-01 00:00:01.680909936
466,ewa beach,21.3156,-158.0072,27.97,67,75,8.23,US,1970-01-01 00:00:01.680910080
467,hinche,19.15,-72.0167,21.06,82,83,2.48,HT,1970-01-01 00:00:01.680910080
468,shubarkuduk,49.1447,56.4872,5.01,76,91,8.76,KZ,1970-01-01 00:00:01.680910080
469,macherla,16.4833,79.4333,25.39,74,32,2.64,IN,1970-01-01 00:00:01.680910080
470,nicoya,10.1483,-85.452,29.81,51,100,2.97,CR,1970-01-01 00:00:01.680910081
471,padang,-0.9492,100.3543,24.63,88,94,1.74,ID,1970-01-01 00:00:01.680910081
472,mitsamiouli,-11.3847,43.2844,27.06,77,95,2.55,KM,1970-01-01 00:00:01.680910081
473,nago,26.5881,127.9761,18.47,61,82,8.31,JP,1970-01-01 00:00:01.680910081
474,broome,42.2506,-75.833,4.7,54,0,4.12,US,1970-01-01 00:00:01.680910082
475,la sarre,48.8002,-79.1996,-4.7,86,100,3.75,CA,1970-01-01 00:00:01.680910082
476,margate,51.3813,1.3862,5.94,91,6,1.96,GB,1970-01-01 00:00:01.680909796
477,la tuque,47.4334,-72.7824,-1.86,40,100,6.17,CA,1970-01-01 00:00:01.680910084
478,suntar,62.1444,117.6319,-16.17,90,100,1.95,RU,1970-01-01 00:00:01.680910085
479,sergeyevka,53.88,67.4158,-4.91,49,0,2.58,KZ,1970-01-01 00:00:01.680910085
480,laguna,38.421,-121.4238,17.09,70,100,5.14,US,1970-01-01 00:00:01.680910085
481,port lincoln,-34.7333,135.8667,16.21,65,87,7.33,AU,1970-01-01 00:00:01.680910086
482,querfurt,51.3833,11.6,5.4,90,78,2.39,DE,1970-01-01 00:00:01.680910086
483,muzhi,65.3667,64.6667,-0.34,74,100,9.67,RU,1970-01-01 00:00:01.680910086
484,kanye,-24.9667,25.3327,17.8,42,1,1.58,BW,1970-01-01 00:00:01.680910087
485,nishihara,26.1842,127.7558,18.6,63,75,11.32,JP,1970-01-01 00:00:01.680910087
486,dunedin,-45.8742,170.5036,15.04,50,4,5.16,NZ,1970-01-01 00:00:01.680910088
487,sambava,-14.2667,50.1667,23.86,89,19,3.5,MG,1970-01-01 00:00:01.680910088
488,tatawin,32.9297,10.4518,12.15,93,100,8.27,TN,1970-01-01 00:00:01.680910088
489,florissant,38.7892,-90.3226,16.19,27,75,5.14,US,1970-01-01 00:00:01.680910063
490,kharp,66.8014,65.8081,0.49,88,94,8.36,RU,1970-01-01 00:00:01.680910089
491,alofi,-19.0595,-169.9187,28.94,70,30,5.66,NU,1970-01-01 00:00:01.680910090
492,kuytun,54.3419,101.5036,-3.59,90,96,5.9,RU,1970-01-01 00:00:01.680910090
493,south lake tahoe,38.9332,-119.9844,9.22,52,100,6.17,US,1970-01-01 00:00:01.680910091
494,jumla,29.2747,82.1838,5.36,50,0,2.34,NP,1970-01-01 00:00:01.680910091
495,trincomalee,8.5711,81.2335,27.33,70,27,3.0,LK,1970-01-01 00:00:01.680910092
496,san miguel,13.4833,-88.1833,33.37,31,5,3.97,SV,1970-01-01 00:00:01.680910092
497,troitsko-pechorsk,62.7084,56.1964,-6.12,93,56,2.93,RU,1970-01-01 00:00:01.680910092
498,novyy buh,47.6931,32.5216,7.14,72,100,3.33,UA,1970-01-01 00:00:01.680910093
499,meiringen,46.7268,8.184,4.1,93,40,1.03,CH,1970-01-01 00:00:01.680910093
500,port hardy,50.6996,-127.4199,9.1,66,75,4.12,CA,1970-01-01 00:00:01.680910092
501,minot,48.2325,-101.2963,-1.88,74,0,5.66,US,1970-01-01 00:00:01.680910094
502,gummidipundi,13.4,80.15,28.32,80,4,2.37,IN,1970-01-01 00:00:01.680910094
503,chuguyevka,44.1653,133.8633,1.18,31,0,2.31,RU,1970-01-01 00:00:01.680910094
504,antofagasta,-23.65,-70.4,20.6,84,43,2.11,CL,1970-01-01 00:00:01.680909981
505,petropavlovsk-kamchatskiy,53.0452,158.6483,-0.67,100,100,3.0,RU,1970-01-01 00:00:01.680910095
506,san jose,37.3394,-121.895,16.93,72,100,6.17,US,1970-01-01 00:00:01.680909841
507,samarai,-10.6167,150.6667,28.16,77,100,1.82,PG,1970-01-01 00:00:01.680910095
508,humaita,-7.5061,-63.0208,23.71,98,97,0.96,BR,1970-01-01 00:00:01.680910096
509,san policarpo,12.1791,125.5072,25.82,83,95,0.85,PH,1970-01-01 00:00:01.680910096
510,plouzane,48.3833,-4.6167,8.03,84,0,2.57,FR,1970-01-01 00:00:01.680909855
511,celestun,20.8667,-90.4,27.47,73,9,7.81,MX,1970-01-01 00:00:01.680910097
512,katsuura,35.1333,140.3,18.11,67,6,9.99,JP,1970-01-01 00:00:01.680910097
513,araceli,10.5529,119.9913,27.13,76,42,4.69,PH,1970-01-01 00:00:01.680910098
514,neiafu,-18.65,-173.9833,30.38,74,40,4.63,TO,1970-01-01 00:00:01.680910098
515,aden,12.7794,45.0367,27.71,77,72,8.24,YE,1970-01-01 00:00:01.680910077
516,shache,38.4167,77.2406,9.84,20,1,0.87,CN,1970-01-01 00:00:01.680910099
517,arlit,18.7369,7.3853,29.35,19,95,3.82,NE,1970-01-01 00:00:01.680910099
518,romny,50.751,33.4747,8.36,92,100,2.38,UA,1970-01-01 00:00:01.680910099
519,conceicao do araguaia,-8.2578,-49.2647,22.7,96,100,1.33,BR,1970-01-01 00:00:01.680910100
520,norheimsund,60.3709,6.1456,5.64,69,79,1.22,NO,1970-01-01 00:00:01.680910100
521,gander,48.9682,-54.5906,2.07,64,75,6.17,CA,1970-01-01 00:00:01.680910033
522,tripoli,32.8752,13.1875,14.41,72,100,5.51,LY,1970-01-01 00:00:01.680910100
523,sfantu gheorghe,45.8667,25.7833,0.7,94,90,1.03,RO,1970-01-01 00:00:01.680909987
524,dryden,49.7833,-92.7503,2.16,44,0,2.57,CA,1970-01-01 00:00:01.680910101
525,faya,18.3851,42.4509,15.06,67,5,0.45,SA,1970-01-01 00:00:01.680909997
526,stara synyava,49.6032,27.6191,3.19,87,92,2.79,UA,1970-01-01 00:00:01.680910102
527,huarmey,-10.0681,-78.1522,26.37,74,100,3.36,PE,1970-01-01 00:00:01.680910102
528,general roca,-39.0333,-67.5833,19.23,34,77,7.49,AR,1970-01-01 00:00:01.680910102
529,aken,50.7766,6.0834,8.15,89,92,1.52,DE,1970-01-01 00:00:01.680910037
530,sorong,-0.8833,131.25,27.09,78,100,2.24,ID,1970-01-01 00:00:01.680910103
531,micheweni,-4.9667,39.8333,26.55,81,84,3.1,TZ,1970-01-01 00:00:01.680910104
532,kalabo,-14.97,22.6814,20.29,71,75,1.71,ZM,1970-01-01 00:00:01.680910105
533,tyumentsevo,53.3224,81.498,-7.98,77,95,6.87,RU,1970-01-01 00:00:01.680910105
534,ahtopol,42.1,27.95,5.99,75,42,1.61,BG,1970-01-01 00:00:01.680910106
535,katherine,-14.4667,132.2667,27.18,74,98,1.54,AU,1970-01-01 00:00:01.680910106
536,shimoda,34.6667,138.95,19.5,56,11,11.67,JP,1970-01-01 00:00:01.680910107
537,houma,29.5958,-90.7195,23.33,92,100,4.63,US,1970-01-01 00:00:01.680910108
538,praia da vitoria,38.7333,-27.0667,12.14,71,40,5.36,PT,1970-01-01 00:00:01.680910109
539,berbera,10.4396,45.0143,27.83,84,86,2.32,SO,1970-01-01 00:00:01.680910109
540,moroni,-11.7022,43.2551,26.06,79,100,0.88,KM,1970-01-01 00:00:01.680910110
541,koubia,11.5833,-11.9,25.4,26,70,0.85,GN,1970-01-01 00:00:01.680910110
542,sitka,57.0531,-135.33,5.94,70,75,1.54,US,1970-01-01 00:00:01.680910111
543,whitianga,-36.8333,175.7,17.13,68,100,6.1,NZ,1970-01-01 00:00:01.680909828
544,chenzhou,25.8,113.0333,13.9,88,100,0.88,CN,1970-01-01 00:00:01.680910113
545,touros,-5.1989,-35.4608,26.0,84,44,4.0,BR,1970-01-01 00:00:01.680910114
546,batagay-alyta,67.8006,130.4114,-23.29,96,100,0.41,RU,1970-01-01 00:00:01.680910114
547,marathon,44.9,-89.7668,6.86,50,0,4.63,US,1970-01-01 00:00:01.680910115
548,kargasok,59.0556,80.8572,-14.28,88,24,4.61,RU,1970-01-01 00:00:01.680910115
549,malanje,-9.5402,16.341,18.44,98,100,2.15,AO,1970-01-01 00:00:01.680910116
550,raudeberg,61.9875,5.1352,5.48,61,54,3.58,NO,1970-01-01 00:00:01.680910117
551,sarankhola,22.3082,89.7897,23.87,71,0,1.98,BD,1970-01-01 00:00:01.680910118
552,narsaq,60.9167,-46.05,2.12,84,100,2.21,GL,1970-01-01 00:00:01.680910118
553,xining,36.6167,101.7667,0.3,57,1,1.01,CN,1970-01-01 00:00:01.680910120
554,orapa,-21.2833,25.3667,22.37,35,0,1.52,BW,1970-01-01 00:00:01.680910121
555,nizhniy odes,63.6445,54.856,-3.99,95,88,3.47,RU,1970-01-01 00:00:01.680910122
556,erzin,36.9559,36.2,11.04,86,16,0.2,TR,1970-01-01 00:00:01.680910123
557,hokitika,-42.7167,170.9667,14.43,57,77,1.96,NZ,1970-01-01 00:00:01.680910123
558,kuhdasht,33.535,47.6061,11.19,34,0,2.06,IR,1970-01-01 00:00:01.680910124
559,wajir,1.7471,40.0573,26.71,65,70,6.69,KE,1970-01-01 00:00:01.680910125
