City_ID,City,Lat,Lng,Max Temp,Humidity,Cloudiness,Wind Speed,Country,Date
0,kapaa,22.0752,-159.319,23.18,86,100,6.69,US,1680963380
1,upernavik,72.7868,-56.1549,-24.98,90,100,7.56,GL,1680963476
2,san policarpo,12.1791,125.5072,26.15,81,41,4.42,PH,1680963530
3,viedma,-40.8135,-62.9967,20.13,63,65,5.03,AR,1680963270
4,mataura,-46.1927,168.8643,5.62,97,100,1.28,NZ,1680963473
5,hay river,60.8156,-115.7999,4.99,52,48,4.12,CA,1680963331
6,kosh-agach,50.0,88.6667,-2.23,61,36,5.08,RU,1680963531
7,cape town,-33.9258,18.4232,19.51,57,40,10.29,ZA,1680963300
8,esperance,-33.8667,121.9,15.2,85,100,6.22,AU,1680963426
9,geraldton,-28.7667,114.6,19.23,72,0,4.63,AU,1680963398
10,avarua,-21.2078,-159.775,26.03,89,75,2.57,CK,1680963426
11,arraial do cabo,-22.9661,-42.0278,25.98,94,100,2.57,BR,1680963532
12,vaini,-21.2,-175.2,26.09,94,75,1.03,TO,1680963473
13,chokurdakh,70.6333,147.9167,-25.03,100,67,2.69,RU,1680963417
14,bontang,0.1333,117.5,26.62,83,56,3.55,ID,1680963533
15,ushuaia,-54.8,-68.3,8.81,57,75,9.26,AR,1680963385
16,rikitea,-23.1203,-134.9692,24.67,63,89,7.83,PF,1680963474
17,ossora,59.2353,163.0719,-8.33,96,100,2.4,RU,1680963533
18,sao filipe,14.8961,-24.4956,22.55,75,100,3.97,CV,1680963534
19,butaritari,3.0707,172.7902,27.08,84,42,7.05,KI,1680963383
20,portland,45.5234,-122.6762,8.07,87,75,4.63,US,1680963380
21,thompson,55.7435,-97.8558,-3.91,68,20,5.14,CA,1680963534
22,saint-philippe,-21.3585,55.7679,27.77,82,100,3.8,RE,1680963434
23,yining,29.0361,114.5636,14.13,73,5,1.24,CN,1680963535
24,ostrovnoy,68.0531,39.5131,2.4,88,100,9.94,RU,1680963487
25,atbasar,51.8,68.3333,-2.38,57,0,2.64,KZ,1680963535
26,asau,46.4333,26.4,6.51,87,100,1.12,RO,1680963535
27,kuchinarai,16.541,104.05,28.28,56,62,4.1,TH,1680963535
28,srisailam,16.0833,78.8667,29.9,34,3,3.77,IN,1680963536
29,iwanai,42.9744,140.5089,2.54,94,100,3.26,JP,1680963536
30,bredasdorp,-34.5322,20.0403,16.26,62,100,3.27,ZA,1680963480
31,ponta do sol,32.6667,-17.1,20.35,53,82,1.16,PT,1680963536
32,kruisfontein,-34.0033,24.7314,18.82,96,100,8.26,ZA,1680963413
33,balingasay,16.3573,119.8564,27.12,79,5,4.18,PH,1680963537
34,saint george,37.1041,-113.5841,6.33,61,0,0.0,US,1680963198
35,constitucion,-35.3333,-72.4167,19.34,36,37,1.73,CL,1680963537
36,bilma,18.6853,12.9164,40.46,5,4,3.77,NE,1680963537
37,chuy,-33.6971,-53.4616,22.65,58,5,2.65,UY,1680963384
38,saint-pierre,-21.3393,55.4781,27.82,74,0,3.09,RE,1680963437
39,khatanga,71.9667,102.5,-22.59,98,97,3.74,RU,1680963538
40,teguldet,57.3064,88.1667,-5.75,83,100,5.6,RU,1680963539
41,dwarka,22.2394,68.9678,26.37,66,42,5.89,IN,1680963540
42,coxim,-18.5067,-54.76,26.45,77,100,1.11,BR,1680963540
43,kodiak,57.79,-152.4072,-2.27,69,100,4.63,US,1680963540
44,codrington,-38.2667,141.9667,12.34,65,100,8.04,AU,1680963417
45,dali,25.7,100.1833,15.82,37,0,2.92,CN,1680963540
46,along,28.1667,94.7667,19.72,71,99,0.65,IN,1680963540
47,rumoi,43.9344,141.6428,4.2,96,100,3.01,JP,1680963523
48,devonport,-41.1667,146.35,9.18,70,54,5.51,AU,1680963479
49,new norfolk,-42.7826,147.0587,7.72,74,54,0.45,AU,1680963481
50,albany,42.6001,-73.9662,4.41,36,2,2.24,US,1680963186
51,jamestown,42.097,-79.2353,2.79,67,0,3.6,US,1680963387
52,wadi maliz,36.4681,8.5495,21.91,29,9,3.74,TN,1680963542
53,hermanus,-34.4187,19.2345,16.56,63,100,3.45,ZA,1680963485
54,georgetown,5.4112,100.3354,28.86,78,20,4.63,MY,1680963478
55,busselton,-33.65,115.3333,15.22,77,61,3.74,AU,1680963469
56,dodge city,37.7528,-100.0171,11.23,32,0,5.14,US,1680963543
57,kanniyakumari,8.0833,77.5667,29.02,69,58,4.9,IN,1680963526
58,torbay,47.6666,-52.7314,1.88,69,75,7.72,CA,1680963331
59,alofi,-19.0595,-169.9187,21.94,94,20,2.06,NU,1680963423
60,nome,64.5011,-165.4064,-32.96,75,0,1.54,US,1680963441
61,roald,62.5833,6.1333,12.51,57,0,4.63,NO,1680963544
62,kaitangata,-46.2817,169.8464,7.11,90,100,3.7,NZ,1680963545
63,altay,47.8667,88.1167,1.5,88,100,2.14,CN,1680963545
64,banda aceh,5.5577,95.3222,27.31,78,100,3.55,ID,1680963545
65,tasiilaq,65.6145,-37.6368,2.09,96,100,15.5,GL,1680963469
66,talcahuano,-36.7167,-73.1167,14.82,67,0,3.09,CL,1680963545
67,port alfred,-33.5906,26.891,18.99,94,91,6.57,ZA,1680963388
68,toccoa,34.5773,-83.3324,8.68,94,100,5.14,US,1680963546
69,grindavik,63.8424,-22.4338,9.97,87,75,11.83,IS,1680963546
70,half moon bay,37.4636,-122.4286,11.45,90,100,2.06,US,1680963217
71,lichuan,30.3,108.85,7.6,70,11,0.98,CN,1680963546
72,alice springs,-23.7,133.8833,19.56,54,100,2.06,AU,1680963546
73,masvingo,-20.0637,30.8277,30.25,20,18,1.69,ZW,1680963547
74,mount isa,-20.7333,139.5,23.87,31,84,3.6,AU,1680963481
75,bluff,-46.6,168.3333,9.44,85,100,1.92,NZ,1680963470
76,katsuura,35.1333,140.3,9.48,67,100,3.72,JP,1680963547
77,bethel,41.3712,-73.414,6.78,40,0,5.14,US,1680963412
78,barrow,71.2906,-156.7887,-31.99,68,0,5.66,US,1680963344
79,vung tau,10.346,107.0843,27.77,80,30,10.11,VN,1680963362
80,talnakh,69.4865,88.3972,-27.11,96,31,0.98,RU,1680963446
81,fairbanks,64.8378,-147.7164,-20.51,79,75,0.0,US,1680963237
82,morros,-9.4467,-46.3003,30.21,55,100,0.71,BR,1680963551
83,airai,-8.9266,125.4092,14.97,95,100,0.04,TL,1680963552
84,komsomolskiy,40.4272,71.7189,19.4,39,75,3.09,UZ,1680963554
85,saint anthony,45.0205,-93.218,6.61,73,0,5.14,US,1680963554
86,karratha,-20.7377,116.8463,28.94,55,74,6.84,AU,1680963554
87,san patricio,28.017,-97.5169,15.47,90,100,4.44,US,1680963554
88,proddatur,14.7333,78.55,32.74,31,0,7.94,IN,1680963555
89,tomatlan,19.9333,-105.25,22.15,50,0,1.07,MX,1680963555
90,atuona,-9.8,-139.0333,27.12,70,51,7.61,PF,1680963314
91,carnarvon,-24.8667,113.6333,22.66,61,0,5.78,AU,1680963415
92,cidreira,-30.1811,-50.2056,21.84,74,86,5.56,BR,1680963420
93,ambunti,-4.2365,142.8448,23.69,99,100,0.42,PG,1680963555
94,omagari,39.45,140.4833,3.54,79,13,1.81,JP,1680963431
95,deming,32.2687,-107.7586,7.94,39,0,2.06,US,1680963556
96,haines junction,60.7522,-137.5108,-8.03,79,100,0.51,CA,1680963556
97,cervo,43.6702,-7.4101,16.28,60,100,1.23,ES,1680963556
98,shimoda,34.6667,138.95,8.95,58,0,12.6,JP,1680963556
99,saint-francois,46.4154,3.9054,15.93,54,75,3.6,FR,1680963557
100,ilulissat,69.2167,-51.1,-6.99,73,75,2.57,GL,1680963417
101,orlik,52.5178,99.825,-3.05,92,100,1.32,RU,1680963557
102,zhangjiakou,40.81,114.8794,9.26,36,11,0.13,CN,1680963557
103,pisco,-13.7,-76.2167,26.03,78,20,2.06,PE,1680963421
104,bam,29.106,58.357,27.13,14,57,5.14,IR,1680963557
105,puerto ayora,-0.7393,-90.3518,27.98,87,100,0.89,EC,1680963258
106,castro,-24.7911,-50.0119,18.12,86,100,2.66,BR,1680963558
107,pevek,69.7008,170.3133,-30.46,100,97,2.17,RU,1680963558
108,longyearbyen,78.2186,15.6401,-8.09,79,75,11.83,SJ,1680963378
109,obo,5.3998,26.4869,31.76,33,91,2.29,CF,1680963558
110,dolores,-36.3132,-57.6792,22.93,43,2,2.31,AR,1680963559
111,buala,-8.145,159.5921,26.89,81,95,1.08,SB,1680963559
112,punta arenas,-53.15,-70.9167,9.06,61,20,7.2,CL,1680963477
113,lebu,-37.6167,-73.65,14.6,60,9,3.27,CL,1680963386
114,umm kaddadah,13.6017,26.6876,38.06,6,17,5.25,SD,1680963559
115,neuquen,-38.9516,-68.0591,16.94,59,0,2.57,AR,1680963553
116,usulutan,13.35,-88.45,29.41,43,17,1.28,SV,1680963560
117,fort nelson,58.8053,-122.7002,2.77,81,75,3.09,CA,1680963497
118,najran,17.4924,44.1277,27.36,30,48,4.26,SA,1680963433
119,santo tomas,14.1079,121.1414,27.14,82,67,3.49,PH,1680963561
120,milton,34.1322,-84.3007,8.12,93,100,1.34,US,1680963323
121,hambantota,6.1241,81.1185,28.37,68,100,5.16,LK,1680963561
122,beringovskiy,63.05,179.3167,-20.27,99,61,2.14,RU,1680963561
123,west plains,36.7281,-91.8524,10.12,51,0,5.66,US,1680963562
124,qaanaaq,77.484,-69.3632,-24.57,72,0,1.69,GL,1680963478
125,narsaq,60.9167,-46.05,2.12,63,25,0.39,GL,1680963447
126,naica,27.85,-105.4833,13.58,60,0,0.92,MX,1680963563
127,hobart,-42.8794,147.3294,7.92,84,75,8.75,AU,1680963371
128,emerald,-23.5333,148.1667,19.08,54,0,4.46,AU,1680963563
129,cabo san lucas,22.8909,-109.9124,20.28,51,2,2.18,MX,1680963393
130,bengkulu,-3.8004,102.2655,25.12,88,82,1.81,ID,1680963475
131,sur,22.5667,59.5289,28.06,55,61,2.74,OM,1680963564
132,kirakira,-10.4544,161.9205,26.78,85,8,2.17,SB,1680963564
133,ciro marina,39.3732,17.126,15.93,59,83,6.12,IT,1680963564
134,portobelo,9.55,-79.65,25.74,78,46,4.38,PA,1680963427
135,sobolevo,54.4299,31.8996,12.18,45,99,2.22,RU,1680963420
136,hervey bay,-25.2986,152.8535,21.84,48,0,3.55,AU,1680963564
137,fort wellington,6.4,-57.6,28.12,61,74,3.64,GY,1680963565
138,enid,36.3956,-97.8784,12.79,45,0,4.12,US,1680963565
139,tual,-5.6667,132.75,28.55,74,100,5.63,ID,1680963565
140,sitka,57.0531,-135.33,6.94,57,100,7.72,US,1680963558
141,pryazha,61.6926,33.6216,7.57,79,16,1.35,RU,1680963566
142,ferrol,43.4832,-8.2369,21.24,62,100,2.57,ES,1680963566
143,rocha,-34.4833,-54.3333,22.27,55,3,2.35,UY,1680963566
144,severo-kurilsk,50.6789,156.125,2.13,99,100,4.4,RU,1680963419
145,korla,41.7597,86.1469,15.6,17,0,2.86,CN,1680963567
146,namibe,-15.1961,12.1522,26.36,71,85,5.62,AO,1680963478
147,mar del plata,-38.0023,-57.5575,22.75,69,0,7.2,AR,1680963567
148,manacapuru,-3.2997,-60.6206,27.89,75,99,2.37,BR,1680963479
149,vila velha,-20.3297,-40.2925,31.97,66,20,4.12,BR,1680963446
150,karasjok,69.4719,25.5112,1.95,99,35,1.68,NO,1680963568
151,giyani,-23.3025,30.7187,35.29,17,4,3.0,ZA,1680963568
152,huarmey,-10.0681,-78.1522,26.13,76,100,2.47,PE,1680963569
153,wabana,47.6332,-52.9481,2.27,68,16,4.02,CA,1680963311
154,kalmunai,7.4167,81.8167,27.67,70,95,3.0,LK,1680963569
155,guerrero negro,27.9769,-114.0611,12.93,85,15,4.5,MX,1680963477
156,kupang,-10.1667,123.5833,24.32,100,100,2.57,ID,1680963569
157,batamshinskiy,50.5594,58.2747,4.84,36,2,6.02,KZ,1680963569
158,darhan,49.4867,105.9228,3.35,57,87,5.0,MN,1680963570
159,lompoc,34.6391,-120.4579,11.07,86,100,3.13,US,1680963570
160,fort saint james,54.4333,-124.25,0.46,97,100,2.68,CA,1680963570
161,auki,-8.7676,160.7034,25.29,88,100,1.08,SB,1680963570
162,vrangel,42.7297,133.0839,2.54,65,8,4.25,RU,1680963570
163,sao joao da barra,-21.6403,-41.0511,29.05,74,85,1.4,BR,1680963570
164,oeiras do para,-2.0031,-49.8544,25.14,91,100,0.31,BR,1680963571
165,togur,58.3631,82.8265,-4.39,94,100,7.16,RU,1680963571
166,russell,32.3502,-85.1999,11.22,87,100,4.12,US,1680963496
167,ukiah,39.1502,-123.2078,7.98,88,100,0.0,US,1680963571
168,girau do ponciano,-9.8842,-36.8289,28.83,65,99,4.87,BR,1680963571
169,san quintin,30.4833,-115.95,12.81,89,0,3.41,MX,1680963572
170,lagoa,39.05,-27.9833,14.02,62,100,8.48,PT,1680963572
171,eureka,40.8021,-124.1637,8.19,96,100,0.45,US,1680963544
172,tairua,-37.0167,175.85,13.88,84,89,1.17,NZ,1680963572
173,onega,63.9061,38.1404,1.99,90,50,1.89,RU,1680963572
174,jau,-22.2964,-48.5578,24.4,72,100,1.77,BR,1680963572
175,mahebourg,-20.4081,57.7,27.36,78,40,3.6,MU,1680963435
176,xiongyue,40.1774,122.1228,9.3,45,0,6.49,CN,1680963573
177,san cristobal,7.7669,-72.225,22.1,64,100,1.67,VE,1680963573
178,khanpur,28.6453,70.6567,32.07,12,1,3.36,PK,1680963573
179,upington,-28.4478,21.2561,29.21,18,20,3.09,ZA,1680963573
180,vestmanna,62.1564,-7.1664,8.51,76,20,11.32,FO,1680963574
181,provideniya,64.3833,-173.3,-27.5,94,30,2.55,RU,1680963483
182,miraflores,19.2167,-98.8083,15.57,52,0,1.2,MX,1680963574
183,gigmoto,13.7796,124.39,25.82,83,49,5.28,PH,1680963574
184,kandi,11.1342,2.9386,41.2,10,98,2.33,BJ,1680963574
185,luderitz,-26.6481,15.1594,20.93,54,100,14.67,NA,1680963574
186,vila franca do campo,37.7167,-25.4333,15.23,55,81,3.27,PT,1680963439
187,meiganga,6.5167,14.3,26.37,46,100,2.09,CM,1680963575
188,tshikapa,-6.4167,20.8,27.8,67,100,2.92,CD,1680963575
189,manbij,36.5281,37.9549,19.29,29,88,1.27,SY,1680963575
190,porangatu,-13.4408,-49.1486,28.17,65,87,1.21,BR,1680963576
191,coihaique,-45.5752,-72.0662,8.34,71,0,5.14,CL,1680963481
192,san jose,37.3394,-121.895,11.51,84,75,2.68,US,1680963460
193,hasaki,35.7333,140.8333,9.22,51,100,3.69,JP,1680963384
194,salinopolis,-0.6136,-47.3561,25.93,86,97,2.17,BR,1680963576
195,maniitsoq,65.4167,-52.9,-2.87,67,1,6.68,GL,1680963576
196,fort frances,48.5999,-93.4003,-2.13,68,0,2.57,CA,1680963486
197,aswan,24.0934,32.907,37.61,15,0,6.17,EG,1680963577
198,port lincoln,-34.7333,135.8667,16.47,63,81,4.57,AU,1680963577
199,rojhan,28.6868,69.9534,32.02,12,3,1.54,PK,1680963577
200,yellowknife,62.456,-114.3525,0.29,86,75,4.63,CA,1680963332
201,havoysund,70.9963,24.6622,3.13,87,100,5.68,NO,1680963578
202,saskylakh,71.9167,114.0833,-18.33,97,100,5.42,RU,1680963578
203,dikson,73.5069,80.5464,-29.82,97,11,1.34,RU,1680963485
204,araria,26.15,87.5167,31.48,12,100,1.36,IN,1680963578
205,freeport,40.6576,-73.5832,7.81,42,0,4.63,US,1680963568
206,pizarro,4.9533,-77.366,26.39,78,94,2.26,CO,1680963578
207,hadishahr,38.8431,45.6635,17.27,19,21,10.37,AZ,1680963579
208,konevo,62.1215,39.3192,4.6,82,6,2.1,RU,1680963579
209,delta del tigre,-34.7633,-56.3853,22.23,60,40,1.03,UY,1680963579
210,ndele,8.4109,20.6473,41.84,8,63,4.72,CF,1680963579
211,muros,42.7762,-9.0603,28.16,66,99,1.76,ES,1680963580
212,east london,-33.0153,27.9116,21.52,88,100,3.6,ZA,1680963580
213,marshalltown,42.0494,-92.908,11.16,59,3,5.49,US,1680963573
214,boa vista,2.8197,-60.6733,28.99,48,0,7.72,BR,1680963495
215,povenets,62.8487,34.8262,1.69,94,94,0.16,RU,1680963580
216,aksarka,66.5606,67.7975,-17.89,90,98,2.02,RU,1680963433
217,alexandria,31.2156,29.9553,26.3,62,100,7.37,EG,1680963580
218,kiunga,-6.1219,141.2906,23.01,100,100,1.11,PG,1680963581
219,arcabuco,5.7546,-73.4367,14.16,83,99,0.43,CO,1680963581
220,basco,20.4487,121.9702,22.94,76,100,12.96,PH,1680963581
221,waingapu,-9.6567,120.2641,25.88,81,100,1.95,ID,1680963581
222,roros,62.5747,11.3842,3.91,56,100,2.06,NO,1680963581
223,pacific grove,36.6177,-121.9166,11.86,93,100,1.54,US,1680963582
224,wexford,52.3342,-6.4575,12.34,89,100,4.47,IE,1680963498
225,hinton,53.4001,-117.5857,-0.71,90,69,2.05,CA,1680963582
226,hamilton,39.1834,-84.5333,7.67,52,0,7.2,US,1680963307
227,seybaplaya,19.65,-90.6667,25.7,74,0,4.11,MX,1680963582
228,shakhovskaya,56.0283,35.5097,10.36,42,22,1.97,RU,1680963582
229,norman wells,65.282,-126.8329,-8.98,79,100,1.03,CA,1680963470
230,mayor pablo lagerenza,-19.9309,-60.7718,27.53,47,1,3.6,PY,1680963583
231,shido,34.3233,134.1733,11.0,54,0,4.72,JP,1680963583
232,nanortalik,60.1432,-45.2371,-1.06,82,100,2.34,GL,1680963419
233,vaitape,-16.5167,-151.75,28.56,75,25,10.34,PF,1680963583
234,trujillo,-8.116,-79.03,26.98,83,100,3.6,PE,1680963521
235,truro,50.2653,-5.0544,12.69,76,20,9.77,GB,1680963584
236,champerico,14.3,-91.9167,27.3,66,5,1.28,GT,1680963584
237,puerto escondido,15.85,-97.0667,27.46,83,0,1.54,MX,1680963388
238,rumphi,-11.0186,33.8575,24.41,73,54,2.84,MW,1680963585
239,tyulgan,52.3405,56.166,3.91,47,0,3.62,RU,1680963553
240,mikuni,36.2171,136.1519,5.95,54,33,7.19,JP,1680963585
241,hella,67.2,14.4333,4.2,92,75,4.63,NO,1680963585
242,huilong,31.8111,121.655,10.52,59,99,3.54,CN,1680963586
243,brokopondo,4.75,-55.1667,26.87,68,98,2.69,SR,1680963586
244,nikolskoye,59.7035,30.7861,11.94,70,37,1.44,RU,1680963486
245,halifax,44.6453,-63.5724,2.34,48,95,7.2,CA,1680963474
246,mantua,45.1667,10.7833,18.58,42,44,0.45,IT,1680963587
247,vanimo,-2.6741,141.3028,25.39,90,100,3.2,PG,1680963587
248,victoria,22.2855,114.1577,21.25,82,60,0.89,HK,1680963244
249,tuktoyaktuk,69.4541,-133.0374,-26.0,76,40,4.12,CA,1680963587
250,yerbogachen,61.2767,108.0108,-16.14,86,100,6.0,RU,1680963587
251,colares,38.7992,-9.4469,26.85,49,0,4.02,PT,1680963588
252,peniche,39.3558,-9.3811,26.16,65,84,4.35,PT,1680963441
253,palana,59.1167,159.9667,-13.46,85,100,2.49,RU,1680963588
254,cayenne,4.9333,-52.3333,29.02,61,75,3.6,GF,1680963206
255,nushki,29.5542,66.0215,26.36,18,30,2.89,PK,1680963588
256,linjiang,41.8069,126.9078,1.77,43,0,1.6,CN,1680963589
257,puerto penasco,31.3167,-113.5333,18.11,38,0,2.77,MX,1680963589
258,sokoto,13.0609,5.239,41.52,9,5,1.9,NG,1680963543
259,yumen,40.2833,97.2,12.77,10,25,9.52,CN,1680963589
260,husavik,66.0449,-17.3389,4.46,96,100,4.7,IS,1680963589
261,ribeira grande,38.5167,-28.7,15.99,63,40,7.6,PT,1680963397
262,mount gambier,-37.8333,140.7667,11.81,68,100,4.57,AU,1680963590
263,port elizabeth,-33.918,25.5701,20.05,81,75,8.23,ZA,1680963590
264,sillod,20.3,75.65,24.86,51,83,5.39,IN,1680963590
265,monrovia,6.3005,-10.7969,31.87,68,100,4.35,LR,1680963590
266,yuryevets,57.3201,43.1041,5.44,48,0,0.81,RU,1680963590
267,beyneu,45.3167,55.2,16.07,49,82,8.79,KZ,1680963590
268,plymouth,41.8334,-70.8328,7.09,33,0,5.66,US,1680963591
269,tiksi,71.6872,128.8694,-19.71,99,49,4.1,RU,1680963488
270,souillac,-20.5167,57.5167,26.21,78,40,3.6,MU,1680963414
271,vostok,46.4856,135.8833,-5.72,68,5,1.29,RU,1680963591
272,hithadhoo,-0.6,73.0833,28.3,64,40,0.82,MV,1680963476
273,sarkand,45.41,79.9186,9.32,67,100,1.98,KZ,1680963592
274,nortelandia,-14.4547,-56.8028,25.69,83,100,1.71,BR,1680963592
275,motygino,58.1831,94.7592,-7.42,82,100,3.4,RU,1680963592
276,klaksvik,62.2266,-6.589,9.51,92,92,12.9,FO,1680963592
277,nizwa,22.9333,57.5333,30.56,21,97,4.49,OM,1680963593
278,ola,59.5833,151.2833,-13.2,88,62,3.58,RU,1680963593
279,kamaishi,39.2667,141.8833,5.75,73,100,2.91,JP,1680963593
280,rapid valley,44.0625,-103.1463,7.99,52,0,0.0,US,1680963493
281,qinhuangdao,39.9317,119.5883,12.09,36,6,4.5,CN,1680963593
282,hofn,64.2539,-15.2082,6.82,95,100,5.75,IS,1680963594
283,arona,28.0996,-16.681,18.23,79,75,4.63,ES,1680963594
284,nouadhibou,20.931,-17.0347,21.99,64,0,9.26,MR,1680963594
285,dongsheng,39.8161,109.9776,6.46,40,46,4.97,CN,1680963594
286,los llanos de aridane,28.6585,-17.9182,18.86,69,100,3.09,ES,1680963594
287,verkhnyaya inta,65.9811,60.3094,0.82,91,100,7.35,RU,1680963594
288,ouegoa,-20.35,164.4333,23.06,78,5,1.26,NC,1680963595
289,inuvik,68.3499,-133.7218,-20.52,77,75,1.54,CA,1680963595
290,cabedelo,-6.9811,-34.8339,30.37,70,89,4.15,BR,1680963595
291,aklavik,68.2191,-135.0107,-28.0,76,75,2.57,CA,1680963437
292,touros,-5.1989,-35.4608,29.97,68,98,4.53,BR,1680963595
293,okhotsk,59.3833,143.3,-16.99,92,12,2.23,RU,1680963595
294,wagar,16.1525,36.2032,38.49,15,73,5.26,SD,1680963596
295,faya,18.3851,42.4509,21.29,45,6,3.98,SA,1680963596
296,bridlington,54.0831,-0.1919,13.49,75,57,4.49,GB,1680963596
297,vao,-22.6667,167.4833,25.33,76,1,5.88,NC,1680963596
298,vardo,70.3705,31.1107,1.99,87,75,10.29,NO,1680963442
299,rangapara,26.8167,92.65,25.38,46,17,2.74,IN,1680963597
300,ust-kulom,61.6864,53.6902,2.06,95,96,2.26,RU,1680963597
301,reforma,18.1,-91.0167,25.42,66,0,4.89,MX,1680963597
302,port-gentil,-0.7193,8.7815,30.98,74,40,7.2,GA,1680963442
303,ulladulla,-35.35,150.4667,14.32,54,38,6.41,AU,1680963598
304,yuzhno-kurilsk,44.0306,145.8556,0.24,95,100,4.88,RU,1680963598
305,north platte,41.1239,-100.7654,9.65,32,0,4.02,US,1680963598
306,ekibastuz,51.6667,75.3667,-0.97,38,0,2.67,KZ,1680963598
307,clyde river,70.4692,-68.5914,-18.87,78,0,11.83,CA,1680963598
308,bandarbeyla,9.4942,50.8122,28.53,64,4,4.84,SO,1680963434
309,askarovo,53.3372,58.5089,4.53,20,0,1.0,RU,1680963599
310,juneau,58.3019,-134.4197,2.9,100,100,0.0,US,1680963382
311,port hardy,50.6996,-127.4199,7.0,93,100,4.63,CA,1680963331
312,urumqi,43.801,87.6005,14.53,25,0,1.0,CN,1680963599
313,turukhansk,65.8167,87.9833,-19.53,83,14,5.18,RU,1680963490
314,svetlogorsk,52.6333,29.7333,14.76,60,100,3.46,BY,1680963600
315,hilo,19.7297,-155.09,20.14,92,100,3.09,US,1680963401
316,sibolga,1.7427,98.7792,24.57,90,100,1.56,ID,1680963600
317,rio gallegos,-51.6226,-69.2181,10.03,40,40,9.77,AR,1680963601
318,abu dhabi,24.4667,54.3667,27.19,53,0,6.69,AE,1680963357
319,praia,14.9215,-23.5087,26.3,53,40,12.35,CV,1680963602
320,jalu,29.0331,21.5482,28.91,21,3,5.28,LY,1680963603
321,udachnyy,66.4167,112.4,-26.97,98,99,1.96,RU,1680963603
322,ingham,42.6,-84.3833,5.91,67,0,6.17,US,1680963329
323,payakumbuh,-0.2202,100.6308,21.49,97,81,1.25,ID,1680963604
324,nyrob,60.733,56.7202,2.33,88,99,2.23,RU,1680963605
325,vazante,-17.9869,-46.9078,26.97,64,100,0.7,BR,1680963605
326,hensall,43.4334,-81.4998,3.14,33,7,3.67,CA,1680963606
327,camrose,53.0168,-112.8353,2.73,79,100,1.74,CA,1680963330
328,middle island,40.8843,-72.9373,7.69,41,0,5.14,US,1680963606
329,caravelas,-17.7125,-39.2481,30.51,55,21,3.5,BR,1680963607
330,lorengau,-2.0226,147.2712,25.5,87,100,2.17,PG,1680963607
331,maltahohe,-24.8333,16.9833,29.27,17,21,10.4,NA,1680963318
332,kailua,21.4022,-157.7394,22.86,82,100,0.89,US,1680963608
333,tuzha,57.6062,47.936,6.99,40,26,0.86,RU,1680963608
334,campo verde,-20.4167,-54.0667,24.53,79,98,0.62,BR,1680963609
335,watsa,3.0372,29.5355,31.8,35,53,3.05,CD,1680963609
336,borovichi,58.3878,33.9155,9.85,54,77,1.85,RU,1680963609
337,road town,18.4167,-64.6167,27.05,69,40,5.14,VG,1680963490
338,whitehorse,60.7161,-135.0538,-4.57,80,40,2.06,CA,1680963427
339,gospic,44.5461,15.3747,9.83,69,100,0.43,HR,1680963610
340,cherskiy,68.75,161.3,-28.35,100,69,0.88,RU,1680963415
341,miravci,41.3078,22.435,13.34,62,96,3.02,MK,1680963611
342,kavaratti,10.5669,72.642,28.29,70,8,2.25,IN,1680963611
343,nawa,27.0167,75.0,29.96,15,7,2.82,IN,1680963611
344,larap,14.299,122.6504,25.47,82,48,4.73,PH,1680963611
345,bambanglipuro,-7.95,110.2833,25.83,81,74,0.84,ID,1680963612
346,taoudenni,22.6783,-3.9836,31.67,11,100,2.1,ML,1680963612
347,ugoofaaru,5.6667,73.0,28.86,72,22,4.46,MV,1680963612
348,torit,4.4133,32.5678,32.9,34,88,1.7,SS,1680963612
349,kahului,20.8947,-156.47,23.25,79,0,6.69,US,1680963351
350,naze,28.3667,129.4833,14.12,57,1,8.36,JP,1680963329
351,ancud,-41.8697,-73.8203,10.71,69,74,1.6,CL,1680963513
352,vigrestad,58.5667,5.7,12.82,69,100,1.02,NO,1680963613
353,barmer,25.75,71.3833,32.67,11,85,2.72,IN,1680963614
354,bonavista,48.6499,-53.1147,-1.79,73,92,8.79,CA,1680963614
355,ventspils,57.3894,21.5606,8.96,61,0,7.2,LV,1680963614
356,llanes,43.4198,-4.7549,17.35,66,96,4.67,ES,1680963614
357,raga,8.4596,25.678,39.77,7,100,3.47,SS,1680963615
358,bafoulabe,13.8065,-10.8321,40.61,9,5,1.42,ML,1680963615
359,te anau,-45.4167,167.7167,7.23,93,83,0.87,NZ,1680963615
360,gondar,12.6,37.4667,24.62,28,93,3.23,ET,1680963615
361,bathsheba,13.2167,-59.5167,28.34,65,20,10.29,BB,1680963616
362,buritis,-15.6178,-46.4233,31.5,45,77,1.27,BR,1680963616
363,adrar,20.5022,-10.0711,32.38,14,100,3.08,MR,1680963617
364,kastamonu,41.5,33.6667,11.01,44,53,2.21,TR,1680963617
365,svetlyy,54.675,20.1347,10.03,85,100,2.14,RU,1680963617
366,longonjo,-12.9067,15.2533,24.54,55,100,1.97,AO,1680963617
367,sistranda,63.7256,8.834,7.98,83,73,1.99,NO,1680963553
368,kutum,14.2,24.6667,34.02,7,1,3.37,SD,1680963618
369,saint-donat-de-montcalm,46.3187,-74.2219,-2.08,78,71,4.31,CA,1680963618
370,erenhot,43.6475,111.9767,9.31,15,8,4.79,CN,1680963619
371,languyan,5.2618,120.0807,26.95,77,100,4.0,PH,1680963619
372,faanui,-16.4833,-151.75,28.54,75,24,10.36,PF,1680963423
373,myitkyina,25.3833,97.4,25.38,31,0,1.16,MM,1680963619
374,balkhash,46.844,74.9804,7.63,62,100,5.05,KZ,1680963619
375,kirovo-chepetsk,58.5539,50.0399,5.06,61,15,0.88,RU,1680963620
376,vacha,55.8008,42.7706,9.19,41,5,2.63,RU,1680963620
377,oksfjord,70.2396,22.3479,4.1,100,100,3.0,NO,1680963621
378,puerto baquerizo moreno,-0.9,-89.6,27.55,83,20,1.03,EC,1680963621
379,yar-sale,66.8333,70.8333,-27.34,98,22,2.45,RU,1680963621
380,dvinskoy,62.1535,45.1175,4.12,83,11,2.46,RU,1680963622
381,sao felix do xingu,-6.6447,-51.995,21.67,99,100,0.57,BR,1680963622
382,malaya vishera,58.8454,32.2222,10.59,54,64,1.22,RU,1680963614
383,lakselv,70.0513,24.9718,2.9,87,100,5.14,NO,1680963622
384,san carlos,9.6612,-68.5827,32.16,37,86,2.29,VE,1680963623
385,leningradskiy,69.3833,178.4167,-28.75,97,68,3.97,RU,1680963440
386,san clemente,33.427,-117.612,12.69,86,32,0.7,US,1680963421
387,verkhoyansk,67.5447,133.385,-18.57,97,99,1.32,RU,1680963624
388,tura,25.5198,90.2201,24.23,32,73,1.49,IN,1680963624
389,bambous virieux,-20.3428,57.7575,27.34,78,40,3.6,MU,1680963624
390,rock sound,24.9,-76.2,24.2,78,1,7.07,BS,1680963625
391,lityn,49.3251,28.0809,9.8,68,100,2.62,UA,1680963625
392,yeppoon,-23.1333,150.7333,17.88,57,0,1.81,AU,1680963625
393,bad soden-salmunster,50.2757,9.3671,12.48,76,97,3.63,DE,1680963625
394,berlevag,70.8578,29.0864,2.0,87,100,9.77,NO,1680963422
395,dunedin,-45.8742,170.5036,10.39,78,100,7.55,NZ,1680963628
396,andenes,69.3143,16.1194,3.99,93,75,5.14,NO,1680963628
397,kudahuvadhoo,2.6708,72.8944,28.6,70,61,3.13,MV,1680963420
398,kismayo,-0.3582,42.5454,29.09,64,11,5.3,SO,1680963629
399,akdepe,42.0551,59.3788,23.27,25,0,6.25,TM,1680963353
400,pangnirtung,66.1451,-65.7125,-26.0,84,0,1.54,CA,1680963418
401,havelock,34.8791,-76.9013,9.96,92,100,8.75,US,1680963442
402,lakatoro,-16.0999,167.4164,27.0,84,18,3.36,VU,1680963630
403,broome,42.2506,-75.833,4.25,51,0,3.09,US,1680963477
404,san vicente,-26.6167,-54.1333,23.17,67,79,0.83,AR,1680963630
405,kalanguy,51.0167,116.5167,3.92,46,99,2.73,RU,1680963630
406,sadao,6.6388,100.4234,27.9,86,49,1.78,TH,1680963631
407,jasper,37.2001,-94.3502,11.08,44,20,4.12,US,1680963488
408,biak,-0.9131,122.8766,25.21,81,100,2.09,ID,1680963631
409,rabaul,-4.1967,152.1721,26.29,79,100,0.81,PG,1680963631
410,zaozerne,45.1582,33.2787,10.93,66,58,4.64,UA,1680963632
411,saint-joseph,-21.3667,55.6167,27.21,82,100,2.65,RE,1680963632
412,leshukonskoye,64.8989,45.7622,1.44,89,97,4.58,RU,1680963486
413,pontes e lacerda,-15.2261,-59.3353,24.49,84,97,2.59,BR,1680963633
414,praya,14.9215,-23.5087,26.3,53,40,12.35,CV,1680963633
415,beder,56.0602,10.2118,13.53,58,34,4.28,DK,1680963633
416,natal,-5.795,-35.2094,28.12,83,75,2.57,BR,1680963633
417,filingue,14.3521,3.3168,41.28,9,100,5.17,NE,1680963634
418,tezu,27.9167,96.1667,21.81,49,10,2.41,IN,1680963634
419,aanekoski,62.6946,25.818,8.25,4,91,1.99,FI,1680963634
420,dargaville,-35.9333,173.8833,12.4,94,11,1.82,NZ,1680963634
421,belyy yar,53.6039,91.3903,-3.06,86,0,5.0,RU,1680963634
422,boguchany,58.3814,97.4531,-7.77,87,100,3.68,RU,1680963635
423,qingdao,36.0986,120.3719,10.78,54,0,4.0,CN,1680963635
424,yulara,-25.2406,130.9889,22.16,33,8,5.52,AU,1680963636
425,abu samrah,35.3029,37.1841,22.02,20,99,1.25,SY,1680963438
426,mobaye,4.319,21.1786,37.89,23,100,1.98,CF,1680963636
427,opuwo,-18.0607,13.84,26.5,44,100,3.41,NA,1680963636
428,kendal,54.3268,-2.7476,14.78,45,78,2.43,GB,1680963636
429,tahta,26.7693,31.5021,38.05,4,100,4.19,EG,1680963636
430,veraval,20.9,70.3667,27.2,65,29,4.64,IN,1680963637
431,ler,8.3018,30.1418,39.06,20,73,3.99,SS,1680963637
432,kodinsk,58.6881,99.1844,-8.86,91,100,3.01,RU,1680963637
433,montepuez,-13.1256,38.9997,25.49,83,100,2.35,MZ,1680963638
434,samarai,-10.6167,150.6667,27.2,81,100,2.68,PG,1680963638
435,coahuayana,18.7333,-103.6833,24.33,44,0,1.1,MX,1680963638
436,fortuna,40.5982,-124.1573,7.18,95,100,2.06,US,1680963638
437,sinnamary,5.3833,-52.95,27.16,72,85,4.1,GF,1680963638
438,entebbe,0.0644,32.4469,26.18,69,20,4.12,UG,1680963638
439,bilibino,68.0546,166.4372,-29.42,89,4,2.44,RU,1680963414
440,salalah,17.0151,54.0924,29.05,74,40,4.12,OM,1680963639
441,dong hoi,17.4833,106.6,21.78,88,43,5.11,VN,1680963639
442,areosa,41.7178,-8.8571,19.67,52,91,2.57,PT,1680963640
443,cascais,38.6979,-9.4215,26.95,53,0,4.02,PT,1680963640
444,alyangula,-13.8483,136.4192,27.44,81,91,4.64,AU,1680963640
445,behshahr,36.6923,53.5526,27.97,34,8,3.49,IR,1680963640
446,pitimbu,-7.4706,-34.8086,30.33,68,77,4.03,BR,1680963462
447,bexhill,-28.7667,153.35,14.93,61,0,2.09,AU,1680963641
448,kysyl-syr,63.8986,122.7617,-19.69,98,98,1.76,RU,1680963641
449,georgiyevka,43.0369,74.7114,13.02,82,75,9.0,KZ,1680963641
450,tigil,57.8,158.6667,-6.05,92,100,1.26,RU,1680963641
451,xam nua,20.4197,104.0439,18.13,92,97,1.52,LA,1680963641
452,arecibo,18.4724,-66.7157,26.12,66,100,3.61,PR,1680963641
453,lyskovo,56.0328,45.0422,8.82,35,0,2.87,RU,1680963642
454,portel,-1.9356,-50.8211,28.9,67,81,0.37,BR,1680963642
455,mareeba,-17.0,145.4333,24.4,93,100,0.44,AU,1680963642
456,razdolnoye,43.55,131.9167,-0.77,67,26,1.0,RU,1680963642
457,acheng,45.5454,126.977,4.28,23,6,4.13,CN,1680963642
458,erzin,36.9559,36.2,18.51,45,100,1.77,TR,1680963643
459,labuhan,-6.8844,112.2051,26.23,82,100,3.14,ID,1680963388
460,gazojak,41.1875,61.4036,24.33,20,0,4.6,TM,1680963643
461,xinyu,27.8043,114.9334,15.03,64,9,0.91,CN,1680963643
462,sinfra,6.6167,-5.9167,35.13,38,80,0.63,CI,1680963643
463,kindersley,51.4668,-109.1682,2.01,80,75,5.66,CA,1680963644
464,narasannapeta,18.4167,84.05,27.7,73,0,2.29,IN,1680963644
465,anadyr,64.75,177.4833,-28.72,76,20,2.0,RU,1680963644
466,takoradi,4.8845,-1.7554,31.18,62,97,5.62,GH,1680963644
467,tabou,4.423,-7.3528,30.66,63,85,3.57,CI,1680963644
468,pavlodar,52.3,76.95,-1.11,29,0,3.0,KZ,1680963645
469,fuyang,32.9,115.8167,11.13,62,0,3.68,CN,1680963645
470,quelimane,-17.8786,36.8883,31.97,66,20,4.12,MZ,1680963645
471,riviere-au-renard,48.9957,-64.3971,-3.84,69,70,10.98,CA,1680963645
472,mudgee,-32.5943,149.5871,13.12,62,83,5.7,AU,1680963645
473,glendive,47.1053,-104.7125,3.2,86,0,4.12,US,1680963646
474,kralendijk,12.15,-68.2667,28.99,70,75,8.23,BQ,1680963435
475,ainring,47.8167,12.95,7.22,97,75,4.12,DE,1680963646
476,westport,41.1415,-73.3579,7.79,37,0,5.66,US,1680963646
477,borujerd,33.8973,48.7516,19.05,20,75,3.09,IR,1680963646
478,saint-augustin,51.226,-58.6502,-6.76,48,72,7.55,CA,1680963482
479,praia da vitoria,38.7333,-27.0667,17.14,55,20,3.69,PT,1680963484
480,quatre cocos,-20.2078,57.7625,27.27,79,47,3.29,MU,1680963478
481,bairiki,1.3292,172.9752,28.0,83,20,5.66,KI,1680963419
482,north bend,43.4065,-124.2243,8.93,99,100,3.6,US,1680963647
483,muli,2.9167,73.5667,28.76,69,99,3.35,MV,1680963436
484,mende,44.6667,3.5,10.27,38,0,4.48,FR,1680963648
485,nago,26.5881,127.9761,15.47,59,0,6.56,JP,1680963648
486,jibou,47.2667,23.25,9.62,67,100,2.46,RO,1680963648
487,bagan,54.1001,77.6646,-1.93,47,75,5.01,RU,1680963648
488,susurluk,39.9136,28.1578,18.27,56,100,3.76,TR,1680963649
489,nelson bay,-32.7167,152.15,18.89,67,0,6.71,AU,1680963649
490,nosy varika,-20.5833,48.5333,25.64,83,100,3.02,MG,1680963649
491,mujiayingzi,42.1167,118.7833,10.75,22,38,6.15,CN,1680963649
492,lanxi,29.2195,119.477,12.73,65,2,1.96,CN,1680963649
493,strezhevoy,60.7333,77.5889,-6.61,79,100,8.35,RU,1680963650
494,aasiaat,68.7098,-52.8699,-11.49,88,64,1.75,GL,1680963650
495,kez,57.8979,53.7152,4.0,69,65,1.7,RU,1680963650
496,aykhal,66.0,111.5,-26.93,100,100,3.35,RU,1680963444
497,baghdad,33.3406,44.4009,25.95,34,0,2.57,IQ,1680963615
498,lillooet,50.6856,-121.942,1.89,94,83,1.53,CA,1680963651
499,djambala,-2.5447,14.7533,27.31,65,100,2.21,CG,1680963651
500,shakawe,-18.3667,21.85,33.66,20,65,2.39,BW,1680963651
501,poum,-20.2333,164.0167,25.06,67,7,1.68,NC,1680963415
502,progreso,21.2833,-89.6667,26.73,66,4,5.24,MX,1680963474
503,mehamn,71.0357,27.8492,1.97,87,100,5.66,NO,1680963652
504,itacare,-14.2775,-38.9967,28.66,67,60,3.04,BR,1680963652
505,la primavera,5.4906,-70.4092,24.86,77,100,1.73,CO,1680963652
506,otjiwarongo,-20.4637,16.6477,29.01,26,100,6.76,NA,1680963652
507,puerto del rosario,28.5004,-13.8627,21.86,60,40,7.2,ES,1680963652
508,ajdabiya,30.7554,20.2263,26.11,27,2,4.36,LY,1680963653
509,manggar,-2.8833,108.2667,26.23,81,100,0.89,ID,1680963446
510,chkalovskoye,44.8392,133.0436,1.83,77,83,2.28,RU,1680963653
511,paamiut,61.994,-49.6678,-1.17,59,100,2.36,GL,1680963653
512,skjervoy,70.0311,20.9714,5.0,96,100,5.07,NO,1680963654
513,la ronge,55.1001,-105.2842,-2.86,68,0,5.14,CA,1680963654
514,oriximina,-1.7656,-55.8661,27.52,75,100,2.58,BR,1680963654
515,pemangkat,1.1667,108.9667,25.87,83,100,2.48,ID,1680963654
516,maragogi,-9.0122,-35.2225,28.53,73,71,4.16,BR,1680963655
517,tres arroyos,-38.3739,-60.2798,23.1,46,8,6.16,AR,1680963656
518,ponta delgada,37.7333,-25.6667,15.4,58,40,6.17,PT,1680963656
519,thinadhoo,0.5333,72.9333,28.43,69,75,1.23,MV,1680963656
520,prince rupert,54.3161,-130.3201,5.05,93,100,17.49,CA,1680963656
521,varsag,46.5167,25.35,4.27,78,100,1.07,RO,1680963656
522,ballina,-28.8667,153.5667,18.17,58,0,4.87,AU,1680963657
523,minab,27.1467,57.0801,29.18,42,0,2.06,IR,1680963657
524,waipawa,-41.4122,175.5153,10.58,83,100,2.51,NZ,1680963380
525,yushala,57.0761,64.2601,3.14,53,30,2.36,RU,1680963657
526,umm lajj,25.0213,37.2685,28.44,52,2,5.5,SA,1680963434
527,kozuchow,51.7456,15.5949,7.71,64,100,4.06,PL,1680963611
528,ojinaga,29.5667,-104.4167,14.12,76,0,3.09,MX,1680963658
529,szprotawa,51.5656,15.5366,7.02,66,100,3.57,PL,1680963658
530,pontianak,-0.0333,109.3333,25.99,88,20,1.54,ID,1680963658
531,matay,28.419,30.7792,37.94,5,100,4.16,EG,1680963371
532,paramonga,-10.6667,-77.8333,25.73,76,97,2.96,PE,1680963658
533,molina,-35.1167,-71.2833,14.85,58,84,3.09,CL,1680963659
534,evensk,61.95,159.2333,-17.59,85,11,3.87,RU,1680963659
535,barda,40.3744,47.1267,15.6,58,71,11.96,AZ,1680963659
536,tanout,14.9709,8.8879,39.62,6,11,0.78,NE,1680963659
537,sassandra,4.95,-6.0833,30.58,62,100,3.59,CI,1680963660
538,mersing,2.4312,103.8405,27.95,78,20,3.6,MY,1680963432
539,moranbah,-22.0016,148.0466,22.69,27,0,5.16,AU,1680963660
540,port hueneme,34.1478,-119.1951,12.66,90,0,0.0,US,1680963637
541,barsovo,61.1667,73.1667,-4.93,81,100,7.19,RU,1680963660
542,tucumcari,35.1717,-103.725,8.86,33,0,0.0,US,1680963661
543,pullman,46.7313,-117.1796,3.72,83,0,0.0,US,1680963654
544,cordoba,-31.4135,-64.1811,25.98,59,20,6.69,AR,1680963545
545,sept-iles,50.2001,-66.3821,-4.97,47,20,6.69,CA,1680963661
546,axim,4.8699,-2.2405,30.44,63,100,4.2,GH,1680963373
547,khani,41.9563,42.9566,5.76,97,100,1.82,GE,1680963661
548,oussouye,12.485,-16.5469,38.1,22,15,4.37,SN,1680963662
549,marsabit,2.3284,37.9899,24.12,54,47,6.04,KE,1680963662
550,comodoro rivadavia,-45.8667,-67.5,15.92,25,0,8.23,AR,1680963396
551,pandan,14.0453,124.1694,25.55,83,38,5.32,PH,1680963662
552,gazli,40.1333,63.45,25.14,14,2,5.75,UZ,1680963663
553,maceio,-9.6658,-35.7353,26.69,94,100,2.06,BR,1680963477
554,leh,34.1667,77.5833,-6.95,55,0,1.12,IN,1680963663
555,yermish,54.7678,42.2711,10.69,40,6,3.61,RU,1680963663
556,gap,44.6667,6.0,9.91,28,12,2.9,FR,1680963664
557,karangasem,-8.45,115.6167,25.21,85,100,3.04,ID,1680963664
558,kloulklubed,7.0419,134.2556,25.28,78,100,5.89,PW,1680963664
559,pangkalanbuun,-2.6833,111.6167,24.31,92,100,1.44,ID,1680963664
560,dawei,14.0833,98.2,24.56,89,100,1.72,MM,1680963664
561,laguna,38.421,-121.4238,11.67,85,40,0.0,US,1680963495
562,baykit,61.67,96.37,-10.87,97,100,1.39,RU,1680963665
563,bolshoy lug,52.0779,104.0919,-0.9,90,95,0.3,RU,1680963665
564,kaduna,10.5222,7.4383,36.92,23,73,1.54,NG,1680963665
565,obzor,42.8167,27.8833,11.82,72,100,3.72,BG,1680963665
566,pianco,-7.1981,-37.9292,32.7,46,73,2.0,BR,1680963666
567,san andres,12.5847,-81.7006,29.01,65,20,4.63,CO,1680963666
568,moyale,3.5167,39.0584,25.54,56,39,5.05,KE,1680963666
569,kendari,-3.945,122.4989,24.75,88,97,2.0,ID,1680963393
570,mumbwa,-14.9783,27.0619,27.55,37,65,1.48,ZM,1680963667
571,jesi,43.5288,13.2402,15.0,58,64,5.66,IT,1680963667
572,tessalit,20.1986,1.0114,32.82,8,31,5.68,ML,1680963667
573,barao de melgaco,-16.1944,-55.9675,26.37,77,100,1.34,BR,1680963667
574,lobez,53.6392,15.6213,14.72,68,100,2.45,PL,1680963667
575,visby,57.6409,18.296,10.03,75,90,6.17,SE,1680963584
576,fernie,49.5,-115.0687,7.05,99,100,3.13,CA,1680963668
