City_ID,City,Lat,Lng,Max Temp,Humidity,Cloudiness,Wind Speed,Country,Date
0,cape town,-33.9258,18.4232,16.88,67,40,4.63,ZA,2023-04-08
1,seoul,37.5683,126.9778,4.69,93,0,3.09,KR,2023-04-08
2,torbay,47.6666,-52.7314,0.32,63,75,5.66,CA,2023-04-08
3,esperance,-33.8667,121.9,15.14,83,89,4.33,AU,2023-04-08
4,georgetown,5.4112,100.3354,24.97,94,20,1.03,MY,2023-04-08
5,ushuaia,-54.8,-68.3,3.81,75,40,14.4,AR,2023-04-08
6,ponta do sol,32.6667,-17.1,18.34,74,100,1.86,PT,2023-04-08
7,castro,-24.7911,-50.0119,16.44,98,100,2.98,BR,2023-04-08
8,muros,42.7762,-9.0603,14.27,80,62,1.71,ES,2023-04-08
9,constitucion,-35.3333,-72.4167,16.58,60,5,4.96,CL,2023-04-08
10,jamestown,42.097,-79.2353,11.96,35,100,4.63,US,2023-04-08
11,baruun-urt,46.6806,113.2792,3.51,39,73,2.01,MN,2023-04-08
12,kingston,17.997,-76.7936,28.53,71,75,7.72,JM,2023-04-08
13,albany,42.6001,-73.9662,10.57,22,35,0.89,US,2023-04-08
14,maku,39.2911,44.4521,7.22,47,91,1.15,IR,2023-04-08
15,port lincoln,-34.7333,135.8667,15.94,72,94,4.52,AU,2023-04-08
16,yizheng,24.6706,103.4296,8.67,97,38,1.55,CN,2023-04-08
17,klaksvik,62.2266,-6.589,7.51,86,90,12.23,FO,2023-04-08
18,kaitangata,-46.2817,169.8464,14.4,57,100,6.49,NZ,2023-04-08
19,vaini,-21.2,-175.2,29.09,84,40,4.63,TO,2023-04-08
20,rikitea,-23.1203,-134.9692,24.9,64,7,7.79,PF,2023-04-08
21,dzhebariki-khaya,62.2167,135.8,-7.31,95,100,4.12,RU,2023-04-08
22,thompson,55.7435,-97.8558,9.09,34,0,5.14,CA,2023-04-08
23,hopelchen,19.7667,-89.85,36.85,15,0,1.92,MX,2023-04-08
24,bucyrus,40.8084,-82.9755,13.86,31,100,3.3,US,2023-04-08
25,kasongo,-4.45,26.6667,20.23,96,99,0.63,CD,2023-04-08
26,provideniya,64.3833,-173.3,-17.98,80,42,3.03,RU,2023-04-08
27,mataura,-46.1927,168.8643,10.27,68,74,2.38,NZ,2023-04-08
28,flinders,-34.5833,150.8552,16.21,58,5,4.02,AU,2023-04-08
29,san patricio,28.017,-97.5169,23.43,67,98,2.7,US,2023-04-08
30,punta arenas,-53.15,-70.9167,6.06,70,40,10.29,CL,2023-04-08
31,bulgan,48.8125,103.5347,1.96,72,100,1.11,MN,2023-04-08
32,iqaluit,63.7506,-68.5145,-17.15,66,40,8.75,CA,2023-04-08
33,sola,-13.8833,167.55,28.3,74,57,3.61,VU,2023-04-08
34,hilo,19.7297,-155.09,25.85,70,75,1.79,US,2023-04-08
35,floro,61.5996,5.0328,5.54,87,76,3.09,NO,2023-04-08
36,arraial do cabo,-22.9661,-42.0278,23.92,94,75,1.54,BR,2023-04-08
37,cidreira,-30.1811,-50.2056,21.42,75,97,6.26,BR,2023-04-08
38,atuona,-9.8,-139.0333,27.15,69,0,6.08,PF,2023-04-08
39,pevek,69.7008,170.3133,-26.9,98,99,1.87,RU,2023-04-08
40,bredasdorp,-34.5322,20.0403,14.19,69,90,0.75,ZA,2023-04-08
41,touros,-5.1989,-35.4608,26.37,86,100,4.32,BR,2023-04-08
42,aswan,24.0934,32.907,29.61,26,0,5.14,EG,2023-04-08
43,gigmoto,13.7796,124.39,25.26,86,77,5.0,PH,2023-04-08
44,kruisfontein,-34.0033,24.7314,15.49,91,100,6.54,ZA,2023-04-08
45,bonfim,3.0833,-59.95,34.36,30,100,2.54,BR,2023-04-08
46,new norfolk,-42.7826,147.0587,8.29,77,98,0.89,AU,2023-04-08
47,llanes,43.4198,-4.7549,15.17,68,100,2.45,ES,2023-04-08
48,cherskiy,68.75,161.3,-19.89,94,89,0.95,RU,2023-04-08
49,bluff,-46.6,168.3333,10.45,72,84,3.35,NZ,2023-04-08
50,lompoc,34.6391,-120.4579,23.34,76,75,4.12,US,2023-04-08
51,hithadhoo,-0.6,73.0833,27.44,70,63,0.35,MV,2023-04-08
52,batticaloa,7.7102,81.6924,26.58,69,91,1.09,LK,2023-04-08
53,superior,46.7208,-92.1041,5.82,85,100,8.75,US,2023-04-08
54,tuktoyaktuk,69.4541,-133.0374,-20.0,71,20,0.0,CA,2023-04-08
55,sudak,44.85,34.9667,8.42,84,51,0.73,UA,2023-04-08
56,kahului,20.8947,-156.47,27.01,73,40,10.8,US,2023-04-08
57,labuhan,-6.8844,112.2051,24.69,87,97,2.71,ID,2023-04-08
58,dikson,73.5069,80.5464,-32.85,100,25,2.14,RU,2023-04-08
59,hasaki,35.7333,140.8333,7.38,36,0,8.81,JP,2023-04-08
60,hami,42.8,93.45,9.69,33,2,1.98,CN,2023-04-08
61,busselton,-33.65,115.3333,15.22,83,100,2.89,AU,2023-04-08
62,inhambane,-23.865,35.3833,23.96,90,1,3.79,MZ,2023-04-08
63,turkmenabat,39.0733,63.5786,17.99,45,0,3.09,TM,2023-04-08
64,tasiilaq,65.6145,-37.6368,1.73,89,100,10.62,GL,2023-04-08
65,severo-kurilsk,50.6789,156.125,1.82,99,100,3.22,RU,2023-04-08
66,kodiak,57.79,-152.4072,-0.27,37,0,6.17,US,2023-04-08
67,mayumba,-3.432,10.6554,26.84,85,95,1.94,GA,2023-04-08
68,lagoa,39.05,-27.9833,14.65,83,100,10.67,PT,2023-04-08
69,kavaratti,10.5669,72.642,27.58,73,0,0.82,IN,2023-04-08
70,geraldton,-28.7667,114.6,10.23,93,0,3.6,AU,2023-04-08
71,bethel,41.3712,-73.414,11.47,19,0,0.45,US,2023-04-08
72,nuuk,64.1835,-51.7216,-4.45,89,95,8.65,GL,2023-04-08
73,burns lake,54.2331,-125.7533,9.68,60,66,5.38,CA,2023-04-08
74,hobart,-42.8794,147.3294,8.48,85,75,7.72,AU,2023-04-08
75,cockburn town,21.4612,-71.1419,26.98,65,40,6.17,TC,2023-04-08
76,mar del plata,-38.0023,-57.5575,22.01,82,0,6.26,AR,2023-04-08
77,puerto ayora,-0.7393,-90.3518,29.98,83,59,2.68,EC,2023-04-08
78,delmas,18.5447,-72.3028,25.4,69,40,4.12,HT,2023-04-08
79,marfino,55.7028,37.3822,8.38,65,0,4.0,RU,2023-04-08
80,srednekolymsk,67.45,153.6833,-14.27,94,94,2.78,RU,2023-04-08
81,arkhara,49.4212,130.0842,1.41,60,5,3.64,RU,2023-04-08
82,tambacounda,13.7539,-13.7586,34.03,26,0,2.06,SN,2023-04-08
83,tigil,57.8,158.6667,-2.67,94,100,3.25,RU,2023-04-08
84,kishorganj,24.4333,90.7667,22.36,44,1,1.84,BD,2023-04-08
85,badvel,14.75,79.05,23.9,81,0,1.51,IN,2023-04-08
86,qaanaaq,77.484,-69.3632,-23.23,73,0,2.9,GL,2023-04-08
87,novobiryusinskiy,56.9578,97.7076,-7.43,86,99,4.5,RU,2023-04-08
88,saint-philippe,-21.3585,55.7679,25.77,82,100,3.56,RE,2023-04-08
89,talnakh,69.4865,88.3972,-28.22,93,60,0.27,RU,2023-04-08
90,nha trang,12.25,109.1833,25.0,92,22,2.68,VN,2023-04-08
91,port alfred,-33.5906,26.891,17.88,97,100,0.89,ZA,2023-04-08
92,lasa,46.6166,10.7002,7.49,95,61,2.29,IT,2023-04-08
93,alta,69.9689,23.2717,1.84,98,100,0.88,NO,2023-04-08
94,kifri,34.6959,44.9661,18.08,37,85,2.16,IQ,2023-04-08
95,bowen,-20.0167,148.2333,24.65,55,65,4.08,AU,2023-04-08
96,naron,43.5167,-8.1528,13.9,64,91,2.42,ES,2023-04-08
97,airai,-8.9266,125.4092,14.75,96,95,0.74,TL,2023-04-08
98,tartus,34.889,35.8866,18.61,51,100,4.38,SY,2023-04-08
99,port elizabeth,-33.918,25.5701,16.72,96,76,3.13,ZA,2023-04-08
100,waipawa,-41.4122,175.5153,14.4,77,87,4.36,NZ,2023-04-08
101,cabo san lucas,22.8909,-109.9124,28.43,51,52,1.34,MX,2023-04-08
102,coihaique,-45.5752,-72.0662,12.97,50,75,3.09,CL,2023-04-08
103,east london,-33.0153,27.9116,20.43,89,100,5.56,ZA,2023-04-08
104,poum,-20.2333,164.0167,25.62,68,6,2.73,NC,2023-04-08
105,port hedland,-20.3167,118.5667,25.03,83,45,1.03,AU,2023-04-08
106,hay river,60.8156,-115.7999,1.99,87,100,4.63,CA,2023-04-08
107,chuy,-33.6971,-53.4616,19.83,68,86,3.84,UY,2023-04-08
108,guerrero negro,27.9769,-114.0611,18.7,57,11,7.81,MX,2023-04-08
109,lithgow,-33.4833,150.15,7.23,70,60,6.61,AU,2023-04-08
110,victoria,22.2855,114.1577,20.14,76,86,0.89,HK,2023-04-08
111,rosignol,6.2833,-57.5333,24.61,74,70,3.13,GY,2023-04-08
112,tuatapere,-46.1333,167.6833,12.07,71,21,1.51,NZ,2023-04-08
113,nikolskoye,59.7035,30.7861,1.94,99,46,1.86,RU,2023-04-08
114,butaritari,3.0707,172.7902,27.35,82,52,7.3,KI,2023-04-08
115,campbell river,50.0163,-125.2446,10.33,93,75,11.32,CA,2023-04-08
116,yellowknife,62.456,-114.3525,4.29,70,75,6.17,CA,2023-04-08
117,nyurba,63.2842,118.3319,-16.31,92,96,4.74,RU,2023-04-08
118,khatanga,71.9667,102.5,-23.73,98,100,2.45,RU,2023-04-08
119,qasigiannguit,68.8193,-51.1922,-10.68,93,100,0.93,GL,2023-04-08
120,aklavik,68.2191,-135.0107,-16.0,55,20,1.54,CA,2023-04-08
121,asau,46.4333,26.4,1.51,93,89,0.95,RO,2023-04-08
122,bonavista,48.6499,-53.1147,-2.77,70,98,8.05,CA,2023-04-08
123,nouadhibou,20.931,-17.0347,17.99,88,0,7.2,MR,2023-04-08
124,salalah,17.0151,54.0924,28.05,74,40,2.06,OM,2023-04-08
125,robertsport,6.7533,-11.3686,27.03,83,91,3.91,LR,2023-04-08
126,bilma,18.6853,12.9164,31.61,9,0,3.31,NE,2023-04-08
127,souillac,-20.5167,57.5167,23.21,94,40,1.03,MU,2023-04-08
128,vostok,46.4856,135.8833,-1.96,45,6,1.25,RU,2023-04-08
129,nanortalik,60.1432,-45.2371,-1.13,86,97,1.58,GL,2023-04-08
130,kasulu,-4.5767,30.1025,17.06,93,19,1.93,TZ,2023-04-08
131,hermanus,-34.4187,19.2345,15.05,71,93,1.4,ZA,2023-04-08
132,bathsheba,13.2167,-59.5167,26.34,78,40,7.72,BB,2023-04-08
133,haines junction,60.7522,-137.5108,3.97,41,100,3.09,CA,2023-04-08
134,limon,10.0,-83.0333,27.94,78,40,2.06,CR,2023-04-08
135,kisanga,-7.4362,37.7034,22.92,97,37,0.92,TZ,2023-04-08
136,carutapera,-1.195,-46.02,24.85,88,99,1.53,BR,2023-04-08
137,kushima,31.4583,131.2333,9.02,57,38,1.26,JP,2023-04-08
138,kaeo,-35.1,173.7833,18.51,96,90,5.41,NZ,2023-04-08
139,the valley,18.217,-63.0578,26.92,73,20,7.2,AI,2023-04-08
140,angangueo,19.6194,-100.2853,21.76,20,3,5.34,MX,2023-04-08
141,santa cruz,-17.8,-63.1667,29.03,51,40,6.69,BO,2023-04-08
142,bestobe,52.4994,73.0975,-2.27,50,15,4.28,KZ,2023-04-08
143,providencia,28.7167,-111.5833,32.89,17,21,5.42,MX,2023-04-08
144,norman wells,65.282,-126.8329,-2.98,59,75,2.06,CA,2023-04-08
145,winnemucca,40.973,-117.7357,12.88,34,85,2.29,US,2023-04-08
146,cayenne,4.9333,-52.3333,28.02,69,75,4.63,GF,2023-04-08
147,samana,19.2056,-69.3369,22.12,94,75,3.09,DO,2023-04-08
148,bengkulu,-3.8004,102.2655,23.68,89,99,1.85,ID,2023-04-08
149,gorontalo,0.5412,123.0595,23.67,93,100,1.62,ID,2023-04-08
150,san quintin,30.4833,-115.95,17.58,65,6,7.19,MX,2023-04-08
151,nazilli,37.9163,28.3223,12.29,74,100,0.7,TR,2023-04-08
152,dolinsk,47.35,142.8,-0.02,66,42,3.65,RU,2023-04-08
153,paamiut,61.994,-49.6678,-2.6,88,90,9.98,GL,2023-04-08
154,barrow,71.2906,-156.7887,-28.99,76,0,4.12,US,2023-04-08
155,kidal,18.4411,1.4078,28.23,13,77,5.16,ML,2023-04-08
156,dubbo,-32.25,148.6167,10.07,87,75,3.6,AU,2023-04-08
157,sitka,57.0531,-135.33,8.94,57,75,7.2,US,2023-04-08
158,kapaa,22.0752,-159.319,26.18,77,20,5.66,US,2023-04-08
159,bubaque,11.2833,-15.8333,25.64,74,100,9.32,GW,2023-04-08
160,deputatskiy,69.3,139.9,-23.44,100,100,2.0,RU,2023-04-08
161,avarua,-21.2078,-159.775,27.03,83,75,5.14,CK,2023-04-08
162,winslow,35.0242,-110.6974,22.1,9,0,1.54,US,2023-04-08
163,nome,64.5011,-165.4064,-21.58,64,40,3.6,US,2023-04-08
164,san fernando,15.0286,120.6898,25.85,81,2,1.11,PH,2023-04-08
165,tiksi,71.6872,128.8694,-21.63,100,97,2.53,RU,2023-04-08
166,faanui,-16.4833,-151.75,28.44,75,73,9.01,PF,2023-04-08
167,saldanha,-33.0117,17.9442,12.03,71,6,7.29,ZA,2023-04-08
168,isangel,-19.55,169.2667,28.42,76,21,2.64,VU,2023-04-08
169,husavik,66.0449,-17.3389,3.19,95,64,5.2,IS,2023-04-08
170,vavatenina,-17.4667,49.2,21.32,98,58,1.04,MG,2023-04-08
171,goksun,38.021,36.4973,7.42,60,100,1.24,TR,2023-04-08
172,mount isa,-20.7333,139.5,20.87,40,28,3.09,AU,2023-04-08
173,fairbanks,64.8378,-147.7164,-8.21,56,75,2.06,US,2023-04-08
174,tokonou,9.65,-9.7833,25.29,62,94,1.89,GN,2023-04-08
175,port blair,11.6667,92.75,26.39,78,91,2.56,IN,2023-04-08
176,hambantota,6.1241,81.1185,23.19,100,20,0.0,LK,2023-04-08
177,clyde river,70.4692,-68.5914,-17.87,78,0,11.83,CA,2023-04-08
178,brae,60.3964,-1.353,6.2,88,1,7.53,GB,2023-04-08
179,saskylakh,71.9167,114.0833,-21.65,97,100,4.12,RU,2023-04-08
180,peruibe,-24.32,-46.9983,22.06,93,100,3.1,BR,2023-04-08
181,sandpoint,48.2766,-116.5533,13.01,44,75,4.02,US,2023-04-08
182,scottsbluff,41.8666,-103.6672,19.13,25,0,6.69,US,2023-04-08
183,makkaveyevo,51.7533,113.9454,-2.52,62,22,0.98,RU,2023-04-08
184,fortuna,40.5982,-124.1573,15.19,62,100,2.91,US,2023-04-08
185,luderitz,-26.6481,15.1594,14.32,70,31,11.21,NA,2023-04-08
186,borogontsy,62.6683,131.1683,-14.21,82,100,4.73,RU,2023-04-08
187,grootfontein,-19.5667,18.1167,16.76,88,97,1.54,NA,2023-04-08
188,san sebastian,43.3128,-1.975,12.41,71,0,1.54,ES,2023-04-08
189,marawi,7.9986,124.2928,19.77,96,100,0.26,PH,2023-04-08
190,san ramon,37.7799,-121.978,20.24,59,100,3.6,US,2023-04-08
191,inirida,3.8653,-67.9239,23.22,96,100,0.75,CO,2023-04-08
192,hamilton,39.1834,-84.5333,15.28,29,0,5.66,US,2023-04-08
193,jesus carranza,17.4333,-95.0333,29.44,55,91,4.77,MX,2023-04-08
194,karratha,-20.7377,116.8463,26.87,35,32,3.92,AU,2023-04-08
195,gladstone,-23.85,151.25,23.77,52,0,0.0,AU,2023-04-08
196,grindavik,63.8424,-22.4338,7.97,93,75,12.35,IS,2023-04-08
197,amahai,-3.3333,128.9167,25.75,83,100,1.97,ID,2023-04-08
198,amuntai,-2.4177,115.2494,22.17,99,97,0.51,ID,2023-04-08
199,jumla,29.2747,82.1838,5.97,67,3,2.24,NP,2023-04-08
200,troitsko-pechorsk,62.7084,56.1964,-0.21,86,99,3.92,RU,2023-04-08
201,ancud,-41.8697,-73.8203,12.4,69,85,0.57,CL,2023-04-08
202,hofn,64.2539,-15.2082,6.77,97,57,3.73,IS,2023-04-08
203,bismarck,46.8083,-100.7837,3.81,80,0,4.63,US,2023-04-08
204,esfahan,32.6572,51.6776,11.8,27,1,3.39,IR,2023-04-08
205,maniitsoq,65.4167,-52.9,-4.77,82,33,7.17,GL,2023-04-08
206,portree,57.4129,-6.1942,11.4,48,100,5.37,GB,2023-04-08
207,valleyview,55.0667,-117.2859,13.02,33,53,4.12,CA,2023-04-08
208,rio verde de mato grosso,-18.9181,-54.8442,22.67,92,99,0.86,BR,2023-04-08
209,leningradskiy,69.3833,178.4167,-19.3,92,100,7.41,RU,2023-04-08
210,mahebourg,-20.4081,57.7,24.58,94,40,1.03,MU,2023-04-08
211,ostrovnoy,68.0531,39.5131,1.2,94,100,7.51,RU,2023-04-08
212,saint-georges,12.0564,-61.7485,26.82,83,40,6.69,GD,2023-04-08
213,north platte,41.1239,-100.7654,25.94,13,0,4.92,US,2023-04-08
214,chokurdakh,70.6333,147.9167,-20.88,90,94,3.4,RU,2023-04-08
215,zholymbet,51.7433,71.7122,-2.7,62,5,2.59,KZ,2023-04-08
216,upernavik,72.7868,-56.1549,-22.76,93,91,6.56,GL,2023-04-08
217,launceston,-41.45,147.1667,10.19,66,100,6.17,AU,2023-04-08
218,mareeba,-17.0,145.4333,24.13,91,100,0.55,AU,2023-04-08
219,saint george,37.1041,-113.5841,23.86,21,0,3.09,US,2023-04-08
220,bambous virieux,-20.3428,57.7575,24.56,94,40,1.03,MU,2023-04-08
221,pierre,44.3683,-100.351,9.51,61,0,1.54,US,2023-04-08
222,aden,12.7794,45.0367,27.89,76,20,9.55,YE,2023-04-08
223,chandler,33.3062,-111.8412,29.79,11,0,2.57,US,2023-04-08
224,doka,13.5167,35.7667,30.95,19,10,3.77,SD,2023-04-08
225,bac lieu,9.285,105.7244,27.21,77,19,5.02,VN,2023-04-08
226,corinth,37.9407,22.9573,12.72,75,92,1.38,GR,2023-04-08
227,constantine,36.365,6.6147,9.67,57,0,1.03,DZ,2023-04-08
228,alekseyevka,50.6309,38.6903,7.48,70,88,3.25,RU,2023-04-08
229,novopokrovka,49.8425,36.5477,9.18,75,99,3.73,UA,2023-04-08
230,roald,62.5833,6.1333,7.64,87,0,5.14,NO,2023-04-08
231,gela,37.0803,14.2307,10.88,73,29,2.59,IT,2023-04-08
232,cabinda,-5.55,12.2,28.08,89,75,1.03,AO,2023-04-08
233,stokmarknes,68.5646,14.9108,2.99,93,100,0.0,NO,2023-04-08
234,yumaguzino,52.9041,56.3933,-0.15,60,1,1.19,RU,2023-04-08
235,olafsvik,64.8945,-23.7142,6.31,85,56,9.68,IS,2023-04-08
236,avera,33.194,-82.5271,7.73,95,100,8.24,US,2023-04-08
237,suntar,62.1444,117.6319,-14.99,86,100,5.31,RU,2023-04-08
238,impfondo,1.6381,18.0667,21.51,94,98,1.28,CG,2023-04-08
239,vila franca do campo,37.7167,-25.4333,15.23,73,100,3.08,PT,2023-04-08
240,abu dhabi,24.4667,54.3667,26.08,58,0,1.03,AE,2023-04-08
241,sinjhoro,26.0303,68.809,25.04,26,16,1.39,PK,2023-04-08
242,los llanos de aridane,28.6585,-17.9182,16.86,71,100,3.6,ES,2023-04-08
243,verin getashen,40.1333,45.2507,2.01,58,52,3.32,AM,2023-04-08
244,santiago del estero,-27.7951,-64.2615,26.59,53,90,3.33,AR,2023-04-08
245,klyuchi,52.2667,79.1667,-1.87,44,36,5.28,RU,2023-04-08
246,alofi,-19.0595,-169.9187,28.94,79,40,6.17,NU,2023-04-08
247,shahr-e babak,30.1165,55.1186,15.35,33,43,1.44,IR,2023-04-08
248,sinegorye,62.0788,150.477,-14.08,82,18,0.18,RU,2023-04-08
249,carnarvon,-24.8667,113.6333,20.7,71,9,5.88,AU,2023-04-08
250,aksarka,66.5606,67.7975,-15.91,96,100,5.99,RU,2023-04-08
251,lerwick,60.1545,-1.1494,7.0,90,2,7.69,GB,2023-04-08
252,teknaf,20.8624,92.3058,24.02,57,0,2.9,BD,2023-04-08
253,manaus,-3.1019,-60.025,28.28,83,75,1.54,BR,2023-04-08
254,jining,35.405,116.5814,8.55,68,0,4.98,CN,2023-04-08
255,sarahan,31.5167,77.8,7.45,41,0,4.15,IN,2023-04-08
256,korla,41.7597,86.1469,10.27,22,15,0.62,CN,2023-04-08
257,manokwari,-0.8667,134.0833,26.18,79,96,2.83,ID,2023-04-08
258,berlevag,70.8578,29.0864,1.0,75,100,11.32,NO,2023-04-08
259,caravelas,-17.7125,-39.2481,25.67,85,29,3.09,BR,2023-04-08
260,fenoarivo,-18.933,47.4354,18.04,94,40,1.54,MG,2023-04-08
261,palauig,15.435,119.9045,26.08,74,13,1.81,PH,2023-04-08
262,dingle,10.9995,122.6711,23.64,90,100,3.21,PH,2023-04-08
263,san benedetto del tronto,42.9456,13.8816,12.73,83,87,2.49,IT,2023-04-08
264,vao,-22.6667,167.4833,24.93,77,11,4.32,NC,2023-04-08
265,san joaquin,37.9333,-121.3011,21.11,56,0,2.57,US,2023-04-08
266,namie,37.4833,141.0,4.99,72,2,9.79,JP,2023-04-08
267,formosa,-26.1775,-58.1781,25.99,52,0,4.63,AR,2023-04-08
268,cedar city,37.6775,-113.0619,15.78,29,0,5.66,US,2023-04-08
269,dalbandin,28.8947,64.4101,21.84,31,38,0.41,PK,2023-04-08
270,chavakachcheri,9.6579,80.1643,27.12,77,89,3.42,LK,2023-04-08
271,cabadiangan,9.7531,122.4739,24.57,86,100,2.63,PH,2023-04-08
272,ponnani,10.767,75.9252,25.62,83,34,1.55,IN,2023-04-08
273,thessalon,46.2501,-83.5666,3.16,65,3,1.44,CA,2023-04-08
274,darnah,32.767,22.6367,15.56,89,94,4.0,LY,2023-04-08
275,puerto maldonado,-12.6,-69.1833,30.22,62,20,2.57,PE,2023-04-08
276,barinas,8.6226,-70.2075,30.02,48,100,1.0,VE,2023-04-08
277,griffith,41.5284,-87.4237,18.41,32,0,3.09,US,2023-04-08
278,bhawanipatna,19.9,83.1667,26.09,42,15,0.65,IN,2023-04-08
279,mazagao,-0.115,-51.2894,29.03,84,79,1.23,BR,2023-04-08
280,verkhnevilyuysk,63.4453,120.3167,-18.7,95,98,3.48,RU,2023-04-08
281,fremont,37.5483,-121.9886,22.02,61,75,5.66,US,2023-04-08
282,gisborne,-38.6533,178.0042,15.08,86,99,2.19,NZ,2023-04-08
283,linqiong,30.4159,103.4609,14.9,71,43,1.01,CN,2023-04-08
284,kosa,59.9445,54.9977,-2.89,96,81,1.67,RU,2023-04-08
285,shache,38.4167,77.2406,13.49,31,5,3.32,CN,2023-04-08
286,talara,-4.5772,-81.2719,29.42,74,40,4.12,PE,2023-04-08
287,grand-lahou,5.1367,-5.0242,27.45,84,64,5.04,CI,2023-04-08
288,batemans bay,-35.7167,150.1833,15.61,54,33,4.61,AU,2023-04-08
289,saint anthony,45.0205,-93.218,20.08,39,0,7.2,US,2023-04-08
290,longyearbyen,78.2186,15.6401,-6.09,73,75,4.12,SJ,2023-04-08
291,loandjili,-4.7561,11.8578,26.89,86,94,1.29,CG,2023-04-08
292,changtu,42.7788,124.0955,8.6,38,40,7.88,CN,2023-04-08
293,kawhia,-38.0651,174.8183,16.3,67,95,3.19,NZ,2023-04-08
294,kavieng,-2.5744,150.7967,25.65,83,100,2.13,PG,2023-04-08
295,lata,40.1629,-8.3327,13.04,69,79,0.91,PT,2023-04-08
296,akhmim,26.5622,31.745,26.11,17,97,0.92,EG,2023-04-08
297,akyab,20.15,92.9,24.96,59,0,2.42,MM,2023-04-08
298,isiolo,0.3546,37.5822,20.54,70,53,1.58,KE,2023-04-08
299,sorland,67.667,12.6934,3.92,79,65,2.33,NO,2023-04-08
300,bunia,1.5667,30.25,19.35,79,9,1.54,CD,2023-04-08
301,makakilo city,21.3469,-158.0858,27.18,63,100,6.69,US,2023-04-08
302,matagami,49.7502,-77.6328,3.06,35,100,4.63,CA,2023-04-08
303,petrovsk-zabaykalskiy,51.273,108.843,-2.09,86,100,1.78,RU,2023-04-08
304,san luis,-33.295,-66.3356,24.53,41,4,4.92,AR,2023-04-08
305,mittagong,-34.45,150.45,12.14,68,14,6.0,AU,2023-04-08
306,codrington,-38.2667,141.9667,12.37,68,99,7.01,AU,2023-04-08
307,arman,59.7,150.1667,-9.94,80,22,2.79,RU,2023-04-08
308,ucluelet,48.9329,-125.5528,10.05,93,100,3.53,CA,2023-04-08
309,hualmay,-11.0964,-77.6139,26.31,72,98,5.62,PE,2023-04-08
310,rindal,63.0565,9.2124,2.18,94,64,1.87,NO,2023-04-08
311,shingu,33.7333,135.9833,8.47,59,0,2.14,JP,2023-04-08
312,gornyy,55.1153,83.9059,-5.43,94,100,8.88,RU,2023-04-08
313,altay,47.8667,88.1167,-3.15,88,61,1.08,CN,2023-04-08
314,dawson creek,55.7666,-120.2362,11.8,32,75,6.69,CA,2023-04-08
315,preobrazheniye,42.9019,133.9064,2.83,71,3,3.52,RU,2023-04-08
316,acari,-15.4311,-74.6158,26.02,66,11,3.75,PE,2023-04-08
317,ribeira grande,38.5167,-28.7,15.43,82,75,6.26,PT,2023-04-08
318,vikhorevka,56.1201,101.1636,-7.23,94,100,1.38,RU,2023-04-08
319,cam ranh,11.9214,109.1591,24.98,94,0,3.09,VN,2023-04-08
320,ulladulla,-35.35,150.4667,14.6,58,49,5.37,AU,2023-04-08
321,cairns,-16.9167,145.7667,26.7,90,100,1.03,AU,2023-04-08
322,nauta,-4.5061,-73.5757,24.19,97,97,1.25,PE,2023-04-08
323,kalmunai,7.4167,81.8167,25.98,72,98,0.9,LK,2023-04-08
324,zolochiv,49.806,24.8944,3.94,91,100,1.43,UA,2023-04-08
325,bairiki,1.3292,172.9752,30.0,74,20,6.69,KI,2023-04-08
326,norsup,-16.0667,167.3833,28.98,75,10,1.43,VU,2023-04-08
327,mafinga,-7.25,35.0667,19.32,83,33,1.14,TZ,2023-04-08
328,saint-francois,46.4154,3.9054,6.49,81,0,1.03,FR,2023-04-08
329,galveston,29.3669,-94.9669,21.69,84,63,2.91,US,2023-04-08
330,washington,47.5001,-120.5015,11.43,46,100,0.84,US,2023-04-08
331,caxito,-8.5785,13.6643,24.55,94,100,0.99,AO,2023-04-08
332,hobyo,5.3505,48.5268,28.2,72,20,4.85,SO,2023-04-08
333,niwari,28.8833,77.5333,22.7,17,0,2.88,IN,2023-04-08
334,soe,-9.8607,124.284,17.98,95,100,1.26,ID,2023-04-08
335,kedougou,12.5579,-12.1743,35.32,23,0,2.06,SN,2023-04-08
336,khasan,42.4308,130.6434,3.38,66,0,1.39,RU,2023-04-08
337,yeppoon,-23.1333,150.7333,20.88,42,0,4.22,AU,2023-04-08
338,belyy yar,53.6039,91.3903,-6.06,63,0,7.0,RU,2023-04-08
339,grandview,38.8858,-94.533,20.36,20,0,5.66,US,2023-04-08
340,portland,45.5234,-122.6762,15.25,58,100,2.68,US,2023-04-08
341,chumikan,54.7183,135.315,-10.4,95,98,0.26,RU,2023-04-08
342,rocha,-34.4833,-54.3333,16.53,85,1,2.86,UY,2023-04-08
343,correntina,-13.3433,-44.6367,27.68,51,99,2.01,BR,2023-04-08
344,sembe,1.6481,14.5806,22.32,99,100,0.62,CG,2023-04-08
345,mandurah,-32.55,115.7,16.06,84,18,3.36,AU,2023-04-08
346,san andres,12.5847,-81.7006,30.01,58,20,4.63,CO,2023-04-08
347,galyugayevskaya,43.6969,44.9344,9.81,86,100,1.81,RU,2023-04-08
348,solaro,44.8799,9.1732,9.11,71,40,0.89,IT,2023-04-08
349,ust-nera,64.5667,143.2,-17.05,91,100,2.29,RU,2023-04-08
350,hovd,48.0056,91.6419,2.52,30,0,10.21,MN,2023-04-08
351,nicolas bravo,18.45,-88.9167,33.67,23,0,3.15,MX,2023-04-08
352,katsuura,35.1333,140.3,8.19,48,1,8.66,JP,2023-04-08
353,aasiaat,68.7098,-52.8699,-12.89,95,97,2.55,GL,2023-04-08
354,linhai,28.85,121.1167,8.29,63,0,0.96,CN,2023-04-08
355,lorengau,-2.0226,147.2712,26.55,85,100,4.56,PG,2023-04-08
356,la ronge,55.1001,-105.2842,9.14,34,75,5.66,CA,2023-04-08
357,lebu,-37.6167,-73.65,13.91,74,97,3.94,CL,2023-04-08
358,mizan teferi,6.9833,35.5833,17.4,84,71,1.64,ET,2023-04-08
359,pires do rio,-17.2997,-48.2794,20.35,92,94,1.62,BR,2023-04-08
360,chapais,49.7834,-74.8492,0.88,79,100,4.1,CA,2023-04-08
361,lavrentiya,65.5833,-171.0,-19.29,78,100,2.7,RU,2023-04-08
362,coquimbo,-29.9533,-71.3436,17.85,82,75,3.6,CL,2023-04-08
363,nea malgara,40.6094,22.6817,12.62,83,100,0.28,GR,2023-04-08
364,puerto baquerizo moreno,-0.9,-89.6,29.55,74,40,2.57,EC,2023-04-08
365,coahuayana,18.7333,-103.6833,31.47,41,5,3.3,MX,2023-04-08
366,tual,-5.6667,132.75,27.26,78,97,4.54,ID,2023-04-08
367,bogorodskoye,56.55,37.8833,3.92,75,21,2.06,RU,2023-04-08
368,ballina,-28.8667,153.5667,20.43,57,0,5.66,AU,2023-04-08
369,porto novo,6.4965,2.6036,28.9,82,87,2.43,BJ,2023-04-08
370,thinadhoo,0.5333,72.9333,27.83,73,43,1.29,MV,2023-04-08
371,visby,57.6409,18.296,2.12,75,79,1.54,SE,2023-04-08
372,fort smith,35.3859,-94.3986,24.02,23,0,2.06,US,2023-04-08
373,matara,5.9485,80.5353,24.07,87,39,2.21,LK,2023-04-08
374,bitkine,11.9801,18.2138,31.92,9,99,2.0,TD,2023-04-08
375,santa marta,11.2408,-74.199,30.03,70,20,6.17,CO,2023-04-08
376,rabak,13.1809,32.74,31.21,13,12,4.9,SD,2023-04-08
377,sur,22.5667,59.5289,26.17,61,49,4.57,OM,2023-04-08
378,can tho,10.0333,105.7833,24.99,100,51,1.03,VN,2023-04-08
379,amalapuram,16.5833,82.0167,23.87,84,0,0.29,IN,2023-04-08
380,stornoway,58.2093,-6.3865,10.02,78,100,3.6,GB,2023-04-08
381,firozpur,30.9167,74.6,20.79,27,0,1.77,IN,2023-04-08
382,zima,53.9202,102.0442,-5.98,75,100,0.85,RU,2023-04-08
383,clovis,36.8252,-119.7029,22.25,51,100,0.89,US,2023-04-08
384,pimentel,-6.8367,-79.9342,30.16,62,20,5.66,PE,2023-04-08
385,fort nelson,58.8053,-122.7002,10.77,32,75,3.6,CA,2023-04-08
386,xai-xai,-25.0519,33.6442,22.2,89,0,3.11,MZ,2023-04-08
387,meulaboh,4.1363,96.1285,24.55,91,98,2.01,ID,2023-04-08
388,bogen,48.9112,12.6896,5.61,83,81,1.07,DE,2023-04-08
389,sioux lookout,50.1001,-91.917,8.04,25,20,3.6,CA,2023-04-08
390,juegang,32.3174,121.1855,8.28,69,0,4.25,CN,2023-04-08
391,arenapolis,-14.4503,-56.8461,23.28,95,83,1.3,BR,2023-04-08
392,rafaela,-31.2503,-61.4867,24.43,44,0,0.89,AR,2023-04-08
393,lahaina,20.8783,-156.6825,27.0,85,100,4.69,US,2023-04-08
394,lappeenranta,61.0587,28.1887,4.03,72,0,1.54,FI,2023-04-08
395,xining,36.6167,101.7667,4.46,41,100,1.21,CN,2023-04-08
396,puri,19.8,85.85,25.29,81,0,5.36,IN,2023-04-08
397,ulaangom,49.9811,92.0667,-2.65,59,47,2.2,MN,2023-04-08
398,slave lake,55.2834,-114.769,7.99,61,0,1.54,CA,2023-04-08
399,lingao,19.9103,109.6859,21.26,87,100,6.66,CN,2023-04-08
400,jeremoabo,-10.075,-38.4808,23.4,92,73,3.77,BR,2023-04-08
401,jijiga,9.35,42.8,20.61,60,64,3.21,ET,2023-04-08
402,eden,36.4885,-79.7667,6.81,93,100,2.06,US,2023-04-08
403,fort-shevchenko,44.5086,50.263,11.68,75,100,4.28,KZ,2023-04-08
404,brezova pod bradlom,48.6635,17.539,4.96,94,97,0.98,SK,2023-04-08
405,blackwater,-23.5833,148.8833,22.01,36,3,4.28,AU,2023-04-08
406,rabo de peixe,37.8,-25.5833,14.73,63,20,6.17,PT,2023-04-08
407,kanke,23.4333,85.3167,25.01,47,75,0.0,IN,2023-04-08
408,mackenzie,55.2999,-123.1698,6.12,52,100,8.23,CA,2023-04-08
409,kungsbacka,57.4872,12.0761,7.32,57,78,2.68,SE,2023-04-08
410,puerto lumbreras,37.5633,-1.8097,13.82,41,0,0.46,ES,2023-04-08
411,linhares,-19.3911,-40.0722,25.2,82,65,2.5,BR,2023-04-08
412,filingue,14.3521,3.3168,33.16,14,60,4.71,NE,2023-04-08
413,pisco,-13.7,-76.2167,28.03,65,0,7.2,PE,2023-04-08
414,ketchikan,55.3422,-131.6461,6.99,87,100,11.32,US,2023-04-08
415,maldonado,-34.6667,-54.9167,20.66,85,0,2.88,UY,2023-04-08
416,alice springs,-23.7,133.8833,12.75,88,1,0.0,AU,2023-04-08
417,tezu,27.9167,96.1667,19.4,44,73,2.16,IN,2023-04-08
418,port alberni,49.2413,-124.8028,9.88,89,100,2.68,CA,2023-04-08
419,bandarbeyla,9.4942,50.8122,27.51,77,27,4.79,SO,2023-04-08
420,weligama,5.9667,80.4167,24.03,87,38,2.33,LK,2023-04-08
421,paramirim,-13.4425,-42.2389,26.75,51,83,0.97,BR,2023-04-08
422,payo,-3.7508,103.6372,21.92,99,100,0.92,ID,2023-04-08
423,turayf,31.6725,38.6637,21.14,14,0,2.57,SA,2023-04-08
424,maceio,-9.6658,-35.7353,24.69,94,100,3.09,BR,2023-04-08
425,ilulissat,69.2167,-51.1,3.01,44,100,5.14,GL,2023-04-08
426,saint-pierre,-21.3393,55.4781,25.82,73,100,1.54,RE,2023-04-08
427,waitati,-45.75,170.5667,12.34,73,99,6.62,NZ,2023-04-08
428,rawlins,41.7911,-107.2387,6.94,45,0,7.2,US,2023-04-08
429,nizwa,22.9333,57.5333,22.87,64,71,0.92,OM,2023-04-08
430,tevaitoa,-16.7833,-151.5,28.26,76,52,8.94,PF,2023-04-08
431,sinnamary,5.3833,-52.95,25.53,79,95,3.69,GF,2023-04-08
432,stabat,3.761,98.4513,25.11,97,100,1.36,ID,2023-04-08
433,knysna,-34.0363,23.0471,14.27,89,100,1.17,ZA,2023-04-08
434,fredericksburg,38.3032,-77.4605,11.97,42,0,2.57,US,2023-04-08
435,karla,59.3723,24.9275,3.98,66,0,2.06,EE,2023-04-08
436,altamont,42.2068,-121.7372,12.91,49,75,3.6,US,2023-04-08
437,manica,49.0,-1.1667,6.08,92,86,1.89,FR,2023-04-08
438,bokoro,12.3807,17.0568,33.68,12,60,2.42,TD,2023-04-08
439,prenzlau,53.3167,13.8667,6.3,97,67,0.86,DE,2023-04-08
440,moanda,-1.5575,13.2178,22.68,95,100,0.91,GA,2023-04-08
441,mount gambier,-37.8333,140.7667,11.71,73,100,3.44,AU,2023-04-08
442,langenburg,49.2544,9.8458,6.62,81,100,2.06,DE,2023-04-08
443,viedma,-40.8135,-62.9967,25.67,46,80,4.1,AR,2023-04-08
444,am timan,11.0297,20.2827,31.65,10,60,2.03,TD,2023-04-08
445,galesburg,40.9478,-90.3712,19.98,24,0,4.12,US,2023-04-08
446,yulara,-25.2406,130.9889,18.17,47,7,4.17,AU,2023-04-08
447,zhanakorgan,43.9098,67.2495,15.03,60,25,3.3,KZ,2023-04-08
448,beyneu,45.3167,55.2,13.27,63,78,5.51,KZ,2023-04-08
449,elko,41.0002,-115.5012,13.01,41,33,5.81,US,2023-04-08
450,alvdal,62.1077,10.6307,-2.23,88,25,1.27,NO,2023-04-08
451,bassar,9.25,0.7833,25.15,71,100,1.5,TG,2023-04-08
452,cruzeiro do oeste,-23.785,-53.0733,20.3,93,81,1.37,BR,2023-04-08
453,puteyets,65.1716,57.091,-0.15,93,100,5.12,RU,2023-04-08
454,polis,35.0367,32.4264,14.9,66,100,4.1,CY,2023-04-08
455,baltiysk,54.6538,19.911,5.86,96,100,2.35,RU,2023-04-08
456,callaway,30.153,-85.5699,21.03,91,75,2.68,US,2023-04-08
457,north port,27.0442,-82.2359,31.2,78,11,5.81,US,2023-04-08
458,kitimat,54.0524,-128.6534,6.21,27,100,0.89,CA,2023-04-08
459,umm lajj,25.0213,37.2685,25.98,59,1,4.25,SA,2023-04-08
460,eureka,40.8021,-124.1637,15.34,63,100,3.13,US,2023-04-08
461,simdega,22.6167,84.5167,28.18,20,96,2.05,IN,2023-04-08
462,alford,57.2326,-2.703,6.42,90,31,0.89,GB,2023-04-08
463,kloulklubed,7.0419,134.2556,27.38,80,97,8.93,PW,2023-04-08
464,narsaq,60.9167,-46.05,3.12,89,100,1.41,GL,2023-04-08
465,moen,69.1304,18.6123,3.26,93,100,2.57,NO,2023-04-08
466,tabas,33.5959,56.9244,21.12,14,9,1.03,IR,2023-04-08
467,karasburg,-28.0167,18.75,13.98,44,77,5.09,NA,2023-04-08
468,hervey bay,-25.2986,152.8535,21.5,51,0,5.47,AU,2023-04-08
469,bogoslovka,53.2084,44.8013,4.51,1,0,1.9,RU,2023-04-08
470,sangueya,10.7,-14.3667,24.74,72,95,1.77,GN,2023-04-08
471,yar-sale,66.8333,70.8333,-20.35,94,100,5.31,RU,2023-04-08
472,tabou,4.423,-7.3528,27.16,83,99,4.2,CI,2023-04-08
473,charyshskoye,51.3978,83.5598,-7.2,87,14,2.42,RU,2023-04-08
474,aykhal,66.0,111.5,-32.64,100,100,2.64,RU,2023-04-08
475,rostock,54.0887,12.1405,6.16,90,55,2.92,DE,2023-04-08
476,valle de allende,26.9333,-105.4,26.4,12,0,4.25,MX,2023-04-08
477,katangli,51.7102,143.2326,-3.71,72,100,7.44,RU,2023-04-08
478,ahipara,-35.1667,173.1667,19.07,81,94,6.38,NZ,2023-04-08
479,soyo,-6.1349,12.3689,27.25,84,86,2.55,AO,2023-04-08
480,conakry,9.538,-13.6773,27.04,83,40,3.09,GN,2023-04-08
481,tucuru,15.3,-90.0667,33.02,28,2,3.12,GT,2023-04-08
482,broken hill,-31.95,141.4333,12.18,77,0,4.91,AU,2023-04-08
483,necochea,-38.5473,-58.7368,21.79,51,64,4.01,AR,2023-04-08
484,noumea,-22.2763,166.4572,26.67,99,6,1.84,NC,2023-04-08
485,goundam,16.4145,-3.6708,31.59,13,100,3.45,ML,2023-04-08
486,balikpapan,-1.2675,116.8289,23.55,100,20,2.57,ID,2023-04-08
487,porkhov,57.765,29.5561,4.67,81,60,1.3,RU,2023-04-08
488,jiaonan,35.8786,119.9753,8.56,74,0,4.39,CN,2023-04-08
489,isla vista,34.4133,-119.861,24.06,72,97,2.68,US,2023-04-08
490,charters towers,-20.1,146.2667,24.39,29,59,4.21,AU,2023-04-08
491,grenada,37.1882,-3.6067,17.17,28,0,0.51,ES,2023-04-08
492,kitgum,3.2783,32.8867,22.92,59,13,2.92,UG,2023-04-08
493,sena madureira,-9.0656,-68.6569,25.12,94,66,0.91,BR,2023-04-08
494,maragogi,-9.0122,-35.2225,25.67,88,69,3.14,BR,2023-04-08
495,sassandra,4.95,-6.0833,25.91,89,89,3.34,CI,2023-04-08
496,ko samui,9.5357,99.9357,28.76,68,45,3.33,TH,2023-04-08
497,lokeren,51.1154,3.963,9.43,86,93,2.43,BE,2023-04-08
498,eyemouth,55.8713,-2.0901,6.24,86,17,4.69,GB,2023-04-08
499,svetlyy,54.675,20.1347,3.03,95,100,2.03,RU,2023-04-08
500,sturgis,41.7992,-85.4192,14.82,24,0,0.0,US,2023-04-08
501,dongsheng,39.8161,109.9776,3.77,37,0,4.6,CN,2023-04-08
502,san juan,-31.5375,-68.5364,29.5,32,0,3.18,AR,2023-04-08
503,smithers,54.7804,-127.1743,10.18,43,75,5.66,CA,2023-04-08
504,marihatag,8.7936,126.2969,24.24,87,83,2.83,PH,2023-04-08
505,wangaratta,-36.3667,146.3333,11.37,80,75,4.86,AU,2023-04-08
506,giddalur,15.35,78.9167,23.84,72,0,1.25,IN,2023-04-08
507,ofunato,39.0717,141.7167,4.88,60,48,10.68,JP,2023-04-08
508,te anau,-45.4167,167.7167,11.3,73,41,0.59,NZ,2023-04-08
509,nanakuli,21.3906,-158.1547,26.97,61,75,5.14,US,2023-04-08
510,yenotayevka,47.2456,47.0281,9.45,67,28,5.4,RU,2023-04-08
511,bejar,40.3864,-5.7634,12.39,41,36,1.43,ES,2023-04-08
512,valverde del camino,37.5751,-6.7543,14.05,34,21,1.09,ES,2023-04-08
513,treinta y tres,-33.2333,-54.3833,20.16,62,78,3.74,UY,2023-04-08
514,kutum,14.2,24.6667,24.73,11,37,3.82,SD,2023-04-08
515,moose factory,51.2585,-80.6094,7.0,31,0,5.66,CA,2023-04-08
516,laguna,38.421,-121.4238,21.05,36,100,2.15,US,2023-04-08
517,barpeta,26.3167,91.0,23.8,40,79,1.92,IN,2023-04-08
518,zhangjiakou,40.81,114.8794,6.58,42,0,0.26,CN,2023-04-08
519,puerto escondido,15.85,-97.0667,30.29,53,1,2.96,MX,2023-04-08
520,mehamn,71.0357,27.8492,0.97,80,100,8.75,NO,2023-04-08
521,balkanabat,39.5108,54.3671,21.01,32,74,2.98,TM,2023-04-08
522,qaqortoq,60.7167,-46.0333,-1.88,89,100,1.69,GL,2023-04-08
523,inyonga,-6.7167,32.0667,17.81,95,41,1.46,TZ,2023-04-08
524,thio,-21.6167,166.2167,25.98,71,8,3.07,NC,2023-04-08
525,baft,29.234,56.6057,11.86,49,74,1.11,IR,2023-04-08
526,sao filipe,14.8961,-24.4956,22.16,75,83,5.27,CV,2023-04-08
527,holiday,28.1878,-82.7395,29.49,75,100,2.24,US,2023-04-08
528,henties bay,-22.116,14.2845,16.06,84,52,5.61,NA,2023-04-08
529,mancio lima,-7.6142,-72.8958,31.04,92,40,1.03,BR,2023-04-08
530,sindhnur,15.7833,76.7667,26.44,47,0,1.89,IN,2023-04-08
531,luino,46.0019,8.7451,11.9,66,0,4.12,IT,2023-04-08
532,wajima,37.4,136.9,7.88,57,56,7.08,JP,2023-04-08
533,pacifica,37.6138,-122.4869,20.41,70,75,3.6,US,2023-04-08
534,san carlos de bariloche,-41.1456,-71.3082,20.86,21,0,6.69,AR,2023-04-08
535,las vegas,36.175,-115.1372,26.35,23,75,3.6,US,2023-04-08
536,sucre,-19.0333,-65.2627,13.84,65,93,2.05,BO,2023-04-08
537,ayagoz,47.9714,80.4392,-4.04,65,53,5.56,KZ,2023-04-08
538,vanimo,-2.6741,141.3028,24.99,88,100,1.37,PG,2023-04-08
539,broome,42.2506,-75.833,10.92,27,0,2.57,US,2023-04-08
540,dudinka,69.4058,86.1778,-27.99,95,35,4.51,RU,2023-04-08
541,arzamas,55.3949,43.8399,2.87,64,2,1.95,RU,2023-04-08
542,pochutla,15.7432,-96.4661,32.12,41,42,3.43,MX,2023-04-08
543,qena,26.1615,32.7183,27.36,20,100,2.26,EG,2023-04-08
544,areka,7.0667,37.7,16.64,85,84,1.64,ET,2023-04-08
545,danane,7.2596,-8.155,23.42,85,99,0.77,CI,2023-04-08
546,dakar,14.6937,-17.4441,22.07,78,0,5.14,SN,2023-04-08
547,darhan,49.4867,105.9228,0.73,75,100,3.62,MN,2023-04-08
548,ishigaki,24.3448,124.1572,17.07,67,75,2.06,JP,2023-04-08
549,camopi,3.1655,-52.3158,25.62,75,74,1.96,GF,2023-04-08
550,college,64.8569,-147.8028,-8.22,58,100,2.29,US,2023-04-08
551,sheridan,44.8333,-106.9173,13.16,28,92,0.89,US,2023-04-08
552,mandalgovi,45.7625,106.2708,5.35,30,93,7.84,MN,2023-04-08
553,dunedin,-45.8742,170.5036,12.47,73,99,8.29,NZ,2023-04-08
554,foz do iguacu,-25.5478,-54.5881,26.44,69,20,1.54,BR,2023-04-08
555,suez,29.9737,32.5263,24.35,31,99,1.21,EG,2023-04-08
556,filadelfia,39.9523,-75.1638,11.54,32,100,2.06,US,2023-04-08
557,elbistan,38.2059,37.1983,9.91,60,100,1.43,TR,2023-04-08
558,tiassale,5.8983,-4.8283,25.2,91,48,1.8,CI,2023-04-08
559,turinsk,58.0458,63.696,-0.83,92,18,1.63,RU,2023-04-08
560,rio grande,-32.035,-52.0986,23.06,68,11,4.53,BR,2023-04-08
561,celestun,20.8667,-90.4,27.34,63,0,6.96,MX,2023-04-08
